[{"stn":"10010","name":"JAN MAYEN","latitude":"70.933","longitude":"-8.667"}, {"stn":"10015","name":"BRINGELAND","latitude":"61.383","longitude":"5.867"}, {"stn":"10030","name":"HORNSUND","latitude":"77","longitude":"15.5"}, {"stn":"10080","name":"SVALBARD LUFTHAVN","latitude":"78.25","longitude":"15.467"}, {"stn":"10100","name":"ANDOYA","latitude":"69.3","longitude":"16.133"}, {"stn":"10230","name":"BARDUFOSS","latitude":"69.067","longitude":"18.533"}, {"stn":"10250","name":"TROMSO\/LANGNES","latitude":"69.683","longitude":"18.917"}, {"stn":"10260","name":"TROMSO","latitude":"69.65","longitude":"18.933"}, {"stn":"10280","name":"BJORNOYA","latitude":"74.517","longitude":"19.017"}, {"stn":"10300","name":"DATSAV3 VIRT STATION (NORWAY)","latitude":"64.85","longitude":"11.233"}, {"stn":"10330","name":"TORSVAG FYR","latitude":"70.25","longitude":"19.5"}, {"stn":"10460","name":"SORKJOSEN","latitude":"69.783","longitude":"20.967"}, {"stn":"10470","name":"KAUTOKEINO","latitude":"69","longitude":"23.033"}, {"stn":"10490","name":"ALTA LUFTHAVN","latitude":"69.983","longitude":"23.367"}, {"stn":"10520","name":"HAMMERFEST","latitude":"70.667","longitude":"23.667"}, {"stn":"10530","name":"HAMMERFEST RADIO","latitude":"70.683","longitude":"23.683"}, {"stn":"10550","name":"FRUHOLMEN FYR","latitude":"71.1","longitude":"24"}, {"stn":"10590","name":"BANAK","latitude":"70.067","longitude":"24.983"}, {"stn":"10610","name":"BRENNELV","latitude":"70.067","longitude":"25.117"}, {"stn":"10620","name":"HOPEN","latitude":"76.5","longitude":"25.067"}, {"stn":"10780","name":"SLETTNES FYR","latitude":"71.1","longitude":"28.217"}, {"stn":"10880","name":"VADSO","latitude":"70.067","longitude":"29.85"}, {"stn":"10890","name":"KIRKENES","latitude":"69.733","longitude":"29.9"}, {"stn":"10980","name":"VARDO","latitude":"70.367","longitude":"31.1"}, {"stn":"11020","name":"SKLINNA FYR","latitude":"65.2","longitude":"11"}, {"stn":"11025","name":"HEIDRUN","latitude":"65.333","longitude":"7.317"}, {"stn":"11050","name":"SKOMVAER FYR","latitude":"67.417","longitude":"11.883"}, {"stn":"11060","name":"ROEST III","latitude":"67.517","longitude":"12.1"}, {"stn":"11120","name":"BRONNOYSUND\/BRONNOY","latitude":"65.467","longitude":"12.217"}, {"stn":"11150","name":"MYKEN","latitude":"66.767","longitude":"12.483"}, {"stn":"11160","name":"SANDNESSJOEN\/STOKKA","latitude":"65.967","longitude":"12.467"}, {"stn":"11220","name":"MOSJOEN KJAERSTAD","latitude":"65.783","longitude":"13.217"}, {"stn":"11510","name":"MO I RANA\/ROSSVOLL","latitude":"66.367","longitude":"14.3"}, {"stn":"11520","name":"BODO VI","latitude":"67.267","longitude":"14.367"}, {"stn":"11600","name":"SKROVA FYR","latitude":"68.15","longitude":"14.65"}, {"stn":"11620","name":"STORKMARKNES\/SKAGEN","latitude":"68.583","longitude":"15.017"}, {"stn":"11670","name":"SORTLAND","latitude":"68.7","longitude":"15.417"}, {"stn":"11830","name":"EVENES","latitude":"68.517","longitude":"16.683"}, {"stn":"11940","name":"NARVIK III","latitude":"68.467","longitude":"17.5"}, {"stn":"12050","name":"SVINOY FYR","latitude":"62.333","longitude":"5.267"}, {"stn":"12100","name":"ALESUND\/VIGRA","latitude":"62.567","longitude":"6.117"}, {"stn":"12120","name":"ONA II","latitude":"62.867","longitude":"6.533"}, {"stn":"12170","name":"MOLDE\/ARO","latitude":"62.75","longitude":"7.267"}, {"stn":"12230","name":"KRISTIANSUND\/KVERNB","latitude":"63.117","longitude":"7.833"}, {"stn":"12280","name":"SULA","latitude":"63.85","longitude":"8.467"}, {"stn":"12350","name":"DOMBAS-KIRKENAER","latitude":"62.083","longitude":"9.133"}, {"stn":"12380","name":"FOKSTUA II","latitude":"62.117","longitude":"9.283"}, {"stn":"12410","name":"ORLAND III","latitude":"63.7","longitude":"9.6"}, {"stn":"12710","name":"TRONDHEIM\/VERNES","latitude":"63.467","longitude":"10.933"}, {"stn":"12900","name":"NAMSOS LUFTHAVN","latitude":"64.467","longitude":"11.583"}, {"stn":"13000","name":"GULLFAKS C","latitude":"61.2","longitude":"2.267"}, {"stn":"13060","name":"HELLISOY FYR","latitude":"60.75","longitude":"4.717"}, {"stn":"13100","name":"FLORO","latitude":"61.583","longitude":"5.033"}, {"stn":"13110","name":"BERGEN\/FLESLAND","latitude":"60.283","longitude":"5.233"}, {"stn":"13170","name":"BERGEN\/FLORIDA","latitude":"60.383","longitude":"5.333"}, {"stn":"13200","name":"SANDANE\/ANDA","latitude":"61.833","longitude":"6.117"}, {"stn":"13610","name":"FANARAKEN","latitude":"61.517","longitude":"7.9"}, {"stn":"13670","name":"FAGERNES","latitude":"60.983","longitude":"9.233"}, {"stn":"13755","name":"GULLFAX (PLATFORM)","latitude":"61.033","longitude":"2.033"}, {"stn":"13820","name":"KISE PA HEDMARK","latitude":"60.767","longitude":"10.817"}, {"stn":"13840","name":"OSLO\/GARDERMOEN","latitude":"60.2","longitude":"11.083"}, {"stn":"14000","name":"EKOFISK","latitude":"56.9","longitude":"3.35"}, {"stn":"14030","name":"UTSIRA FYR","latitude":"59.3","longitude":"4.883"}, {"stn":"14033","name":"EKOFISK OIL PLTFRM","latitude":"56.55","longitude":"3.25"}, {"stn":"14060","name":"SLATTEROY FYR","latitude":"59.917","longitude":"5.067"}, {"stn":"14080","name":"HAUGESUND\/KARMOY","latitude":"59.35","longitude":"5.217"}, {"stn":"14150","name":"STAVANGER\/SOLA","latitude":"58.883","longitude":"5.633"}, {"stn":"14270","name":"LISTA FYR","latitude":"58.117","longitude":"6.567"}, {"stn":"14420","name":"BYGLANDSFJORD","latitude":"58.667","longitude":"7.8"}, {"stn":"14480","name":"OKSOY FYR","latitude":"58.067","longitude":"8.05"}, {"stn":"14520","name":"KRISTIANSAND\/KJEVIK","latitude":"58.2","longitude":"8.083"}, {"stn":"14650","name":"TORUNGEN FYR","latitude":"58.4","longitude":"8.8"}, {"stn":"14670","name":"LYNGOR FYR","latitude":"58.633","longitude":"9.15"}, {"stn":"14770","name":"KONGSBERG IV","latitude":"59.667","longitude":"9.65"}, {"stn":"14820","name":"FERDER FYR","latitude":"59.033","longitude":"10.533"}, {"stn":"14825","name":"TORP","latitude":"59.2","longitude":"10.267"}, {"stn":"14830","name":"TORP","latitude":"59.2","longitude":"10.267"}, {"stn":"14843","name":"OSEBERG","latitude":"59.317","longitude":"10.45"}, {"stn":"14880","name":"OSLO\/FORNEBU","latitude":"59.9","longitude":"10.617"}, {"stn":"14920","name":"OSLO-BLINDERN","latitude":"59.95","longitude":"10.717"}, {"stn":"14940","name":"RYGGE","latitude":"59.383","longitude":"10.783"}, {"stn":"20120","name":"RITSEM","latitude":"67.733","longitude":"17.467"}, {"stn":"20130","name":"RITSEM","latitude":"67.733","longitude":"17.467"}, {"stn":"20200","name":"KATTERJAKK","latitude":"68.417","longitude":"18.167"}, {"stn":"20240","name":"STORA SJOFALLET","latitude":"67.5","longitude":"18.3"}, {"stn":"20430","name":"ESRANGE","latitude":"67.933","longitude":"21.067"}, {"stn":"20440","name":"KIRUNA","latitude":"67.817","longitude":"20.333"}, {"stn":"20490","name":"GALLIVARE","latitude":"67.15","longitude":"20.65"}, {"stn":"20500","name":"KATTERJAKK","latitude":"68.417","longitude":"18.167"}, {"stn":"20550","name":"NAIMAKKA","latitude":"68.683","longitude":"21.533"}, {"stn":"20570","name":"KALLAX\/LULEA (AFB)","latitude":"65.55","longitude":"22.133"}, {"stn":"20580","name":"HAPARANDA","latitude":"65.833","longitude":"24.15"}, {"stn":"20600","name":"NAIMAKKA","latitude":"68.683","longitude":"21.533"}, {"stn":"20620","name":"OSTERSUND FROSON AB","latitude":"63.183","longitude":"14.5"}, {"stn":"20640","name":"SAITTAROVA","latitude":"67.333","longitude":"22.233"}, {"stn":"20650","name":"SVEG","latitude":"62.033","longitude":"14.367"}, {"stn":"20660","name":"SUNDSVALL\/HARNOSAND","latitude":"62.533","longitude":"17.45"}, {"stn":"20690","name":"SODERHAMN (SWE-AFB)","latitude":"61.267","longitude":"17.1"}, {"stn":"20730","name":"KARLSTAD","latitude":"59.367","longitude":"13.467"}, {"stn":"20740","name":"OREBRO\/EKEBY","latitude":"59.267","longitude":"15.333"}, {"stn":"20750","name":"VASTERAS\/HASSLO AFB","latitude":"59.583","longitude":"16.633"}, {"stn":"20760","name":"UPPSALA","latitude":"59.883","longitude":"17.6"}, {"stn":"20770","name":"STOCKHOLM\/BROMMA","latitude":"59.35","longitude":"17.95"}, {"stn":"20790","name":"SATENAS (SWE-AFB)","latitude":"58.433","longitude":"12.7"}, {"stn":"20800","name":"KARESUANDO","latitude":"68.45","longitude":"22.45"}, {"stn":"20820","name":"LANDSORT","latitude":"58.75","longitude":"17.867"}, {"stn":"20830","name":"GOTSKA SANDON","latitude":"58.4","longitude":"19.2"}, {"stn":"20840","name":"LANNAVAARA","latitude":"68.05","longitude":"22"}, {"stn":"20860","name":"LAINIO","latitude":"67.767","longitude":"22.35"}, {"stn":"20870","name":"JONKOPING","latitude":"57.767","longitude":"14.083"}, {"stn":"20880","name":"KOMPELUSVAARA","latitude":"67.083","longitude":"22.217"}, {"stn":"20890","name":"OLANDS NORRA UDDE","latitude":"57.367","longitude":"17.1"}, {"stn":"20900","name":"VISBY","latitude":"57.667","longitude":"18.35"}, {"stn":"20910","name":"KULLEN (LGT-H)","latitude":"56.3","longitude":"12.45"}, {"stn":"20920","name":"MUODOSLOMPOLO","latitude":"67.95","longitude":"23.467"}, {"stn":"20940","name":"UNGSKAR","latitude":"56.033","longitude":"15.8"}, {"stn":"20950","name":"KALMAR","latitude":"56.683","longitude":"16.3"}, {"stn":"20960","name":"PAJALA","latitude":"67.217","longitude":"23.4"}, {"stn":"20980","name":"MALMO\/STURUP","latitude":"55.55","longitude":"13.367"}, {"stn":"20990","name":"YSTAD","latitude":"55.433","longitude":"13.833"}, {"stn":"21020","name":"STEKENJOKK","latitude":"65.099","longitude":"14.517"}, {"stn":"21040","name":"HEMAVAN","latitude":"65.8","longitude":"15.1"}, {"stn":"21080","name":"KLIMPFJALL","latitude":"65.067","longitude":"14.8"}, {"stn":"21150","name":"STORLIEN-VISJOVALE","latitude":"63.3","longitude":"12.133"}, {"stn":"21170","name":"NORDMALING","latitude":"63.567","longitude":"19.5"}, {"stn":"21190","name":"UMEA","latitude":"63.8","longitude":"20.283"}, {"stn":"21200","name":"KVIKKJOKK-ARRENJARK","latitude":"66.883","longitude":"17.75"}, {"stn":"21230","name":"EDSBYN","latitude":"61.383","longitude":"15.833"}, {"stn":"21250","name":"OSTMARK","latitude":"60.317","longitude":"12.7"}, {"stn":"21280","name":"GUNNARN","latitude":"65.016","longitude":"17.683"}, {"stn":"21290","name":"GUNNARN SOL (AUT)","latitude":"64.967","longitude":"17.7"}, {"stn":"21330","name":"SNAVLUNDA","latitude":"58.967","longitude":"14.9"}, {"stn":"21350","name":"BURESJON","latitude":"65.567","longitude":"17.867"}, {"stn":"21440","name":"ABRAUR","latitude":"65.9","longitude":"19.1"}, {"stn":"21470","name":"MALA-BRANNAN","latitude":"65.15","longitude":"18.6"}, {"stn":"21480","name":"NORRKOPING\/BRAVALLA","latitude":"58.617","longitude":"16.117"}, {"stn":"21490","name":"ARVIDSJAUR","latitude":"65.6","longitude":"19.267"}, {"stn":"21500","name":"NYKOPING\/SKAVST AFB","latitude":"58.783","longitude":"16.917"}, {"stn":"21510","name":"JOKKMOKK FPL","latitude":"66.483","longitude":"20.167"}, {"stn":"21520","name":"SUDOK","latitude":"66.3","longitude":"20.417"}, {"stn":"21540","name":"VIDSEL","latitude":"65.883","longitude":"20.15"}, {"stn":"21550","name":"HAGSHULT (SWE-AFB)","latitude":"57.3","longitude":"14.133"}, {"stn":"21610","name":"NATTAVAARA","latitude":"66.75","longitude":"20.933"}, {"stn":"21630","name":"LJUNGBYHED(SWE-AFB)","latitude":"56.083","longitude":"13.233"}, {"stn":"21660","name":"RONNEBY (SWE-AFB)","latitude":"56.267","longitude":"15.283"}, {"stn":"21670","name":"FALSTERBO (LGT-H)","latitude":"55.383","longitude":"12.817"}, {"stn":"21730","name":"ALVSBYN","latitude":"65.667","longitude":"21.067"}, {"stn":"21740","name":"LAKATRASK","latitude":"66.283","longitude":"21.133"}, {"stn":"21760","name":"PITE-RONNSKAR","latitude":"65.033","longitude":"21.567"}, {"stn":"21810","name":"OVERKALIX SVARTBYN","latitude":"66.267","longitude":"22.85"}, {"stn":"21860","name":"LULEA-KALLAX","latitude":"65.55","longitude":"22.133"}, {"stn":"21910","name":"STORON","latitude":"65.7","longitude":"23.1"}, {"stn":"21960","name":"HAPARANDA","latitude":"65.833","longitude":"24.15"}, {"stn":"21990","name":"YLINENJARVI","latitude":"66.617","longitude":"23.467"}, {"stn":"22060","name":"STORLIEN","latitude":"63.3","longitude":"12.117"}, {"stn":"22220","name":"GADDEDE","latitude":"64.5","longitude":"14.167"}, {"stn":"22260","name":"OSTERSUND FROSON","latitude":"63.2","longitude":"14.5"}, {"stn":"22300","name":"GUBBHOGEN","latitude":"64.217","longitude":"15.55"}, {"stn":"22310","name":"FOLLINGE","latitude":"63.683","longitude":"14.6"}, {"stn":"22320","name":"NORRAKER","latitude":"64.45","longitude":"15.6"}, {"stn":"22340","name":"STROMSUND","latitude":"63.867","longitude":"15.583"}, {"stn":"22360","name":"HALLHAXASEN","latitude":"63.767","longitude":"15.333"}, {"stn":"22420","name":"HOTING","latitude":"64.083","longitude":"16.233"}, {"stn":"22440","name":"JUNSELE","latitude":"63.683","longitude":"16.95"}, {"stn":"22450","name":"VILHELMINA","latitude":"64.583","longitude":"16.85"}, {"stn":"22470","name":"KRANGEDE","latitude":"63.15","longitude":"16.167"}, {"stn":"22520","name":"IDVATTNET","latitude":"64.45","longitude":"17.083"}, {"stn":"22590","name":"KRAMFORS (SWE-AFB)","latitude":"63.05","longitude":"17.767"}, {"stn":"22600","name":"VASTMARKUM","latitude":"63.133","longitude":"18.25"}, {"stn":"22610","name":"LYCKSELE","latitude":"64.55","longitude":"18.717"}, {"stn":"22640","name":"FREDRIKA","latitude":"64.083","longitude":"18.417"}, {"stn":"22650","name":"HEMLING","latitude":"63.65","longitude":"18.55"}, {"stn":"22670","name":"ORNSKOLDSVIK ARPT","latitude":"63.4","longitude":"18.967"}, {"stn":"22690","name":"SKAGSUDDE","latitude":"63.183","longitude":"19.017"}, {"stn":"22710","name":"NORSJO","latitude":"64.933","longitude":"19.383"}, {"stn":"22740","name":"VINDELN","latitude":"64.217","longitude":"19.717"}, {"stn":"22760","name":"NORDMALING","latitude":"63.567","longitude":"19.5"}, {"stn":"22780","name":"SKAGSUDDE (LGT-H)","latitude":"63.183","longitude":"19.017"}, {"stn":"22820","name":"PETISTRASK","latitude":"64.566","longitude":"19.7"}, {"stn":"22840","name":"JARNASKLUBB","latitude":"63.433","longitude":"19.683"}, {"stn":"22860","name":"UMEA","latitude":"63.8","longitude":"20.283"}, {"stn":"22861","name":"SODERHAMN","latitude":"61.25","longitude":"17.1"}, {"stn":"22870","name":"HOLMON","latitude":"63.817","longitude":"20.867"}, {"stn":"22880","name":"HOLMOGADD","latitude":"63.6","longitude":"20.75"}, {"stn":"22930","name":"SKELLEFTEA","latitude":"64.599","longitude":"21.067"}, {"stn":"22960","name":"BJUROKLUBB (LGT-H)","latitude":"64.483","longitude":"21.583"}, {"stn":"22970","name":"BJUROKLUBB","latitude":"64.483","longitude":"21.583"}, {"stn":"22980","name":"SVARTEBORG","latitude":"58.567","longitude":"11.55"}, {"stn":"23050","name":"NASHUVUD","latitude":"58.9","longitude":"13.25"}, {"stn":"23060","name":"RORBACKSNAS","latitude":"61.133","longitude":"12.817"}, {"stn":"23160","name":"SARNA","latitude":"61.7","longitude":"13.183"}, {"stn":"23170","name":"DRAVAGEN","latitude":"62.1","longitude":"13.617"}, {"stn":"23190","name":"BORTNAN","latitude":"62.75","longitude":"13.85"}, {"stn":"23210","name":"ALVDALEN","latitude":"61.25","longitude":"14.033"}, {"stn":"23240","name":"SVEG","latitude":"62.017","longitude":"14.367"}, {"stn":"23290","name":"HAMRA","latitude":"61.667","longitude":"15"}, {"stn":"23310","name":"HUNGE","latitude":"62.75","longitude":"15.083"}, {"stn":"23330","name":"LJUNGBY","latitude":"56.833","longitude":"13.917"}, {"stn":"23360","name":"EDSBYN","latitude":"61.383","longitude":"15.833"}, {"stn":"23370","name":"NORRHOG","latitude":"62.283","longitude":"15.667"}, {"stn":"23380","name":"EDSBYN","latitude":"61.367","longitude":"15.717"}, {"stn":"23430","name":"TORPSHAMMAR","latitude":"62.5","longitude":"16.283"}, {"stn":"23470","name":"DELSBO","latitude":"61.833","longitude":"16.55"}, {"stn":"23550","name":"KUGGOREN","latitude":"61.7","longitude":"17.533"}, {"stn":"23660","name":"TIMRA\/MIDLANDA","latitude":"62.517","longitude":"17.45"}, {"stn":"23680","name":"BRAMON","latitude":"62.217","longitude":"17.75"}, {"stn":"23760","name":"SODERHAMN (SWE-AFB)","latitude":"61.267","longitude":"17.1"}, {"stn":"23780","name":"SODERHAMN FLYGPLATS","latitude":"61.45","longitude":"17.167"}, {"stn":"23820","name":"LUNGO","latitude":"62.65","longitude":"18.1"}, {"stn":"24000","name":"OSTMARK","latitude":"60.35","longitude":"12.65"}, {"stn":"24030","name":"NAVEN","latitude":"58.7","longitude":"13.117"}, {"stn":"24040","name":"ARVIKA","latitude":"59.667","longitude":"12.583"}, {"stn":"24060","name":"BLOMSKOG","latitude":"59.283","longitude":"12.05"}, {"stn":"24080","name":"BLOMSKOG","latitude":"59.217","longitude":"12.083"}, {"stn":"24090","name":"AMAL","latitude":"59.05","longitude":"12.7"}, {"stn":"24100","name":"MALUNG","latitude":"60.683","longitude":"13.717"}, {"stn":"24110","name":"ARVIKA","latitude":"59.667","longitude":"12.633"}, {"stn":"24150","name":"KARLSTAD SOL","latitude":"59.367","longitude":"13.467"}, {"stn":"24180","name":"KARLSTAD FLYGPLATS","latitude":"59.45","longitude":"13.467"}, {"stn":"24230","name":"SUNNE","latitude":"59.867","longitude":"13.117"}, {"stn":"24240","name":"STALLDALEN","latitude":"59.95","longitude":"14.95"}, {"stn":"24260","name":"GUSTAVSFORS","latitude":"60.15","longitude":"13.8"}, {"stn":"24283","name":"OREBRO","latitude":"59.217","longitude":"15.033"}, {"stn":"24290","name":"DAGLOSEN","latitude":"59.667","longitude":"14.183"}, {"stn":"24320","name":"OREBRO","latitude":"59.233","longitude":"15.05"}, {"stn":"24350","name":"BORLANGE","latitude":"60.433","longitude":"15.517"}, {"stn":"24360","name":"OREBRO\/EKEBY (DEAD)","latitude":"59.267","longitude":"15.333"}, {"stn":"24400","name":"AMOT","latitude":"60.967","longitude":"16.433"}, {"stn":"24410","name":"MORA","latitude":"60.967","longitude":"14.5"}, {"stn":"24440","name":"FOLKARNA","latitude":"60.167","longitude":"16.317"}, {"stn":"24460","name":"VASTERAS\/HASSLO AFB","latitude":"59.583","longitude":"16.633"}, {"stn":"24500","name":"EGGEGRUND","latitude":"60.733","longitude":"17.567"}, {"stn":"24520","name":"KILSBERGEN-SUTTARBOD","latitude":"59.3","longitude":"14.9"}, {"stn":"24530","name":"GAVLE","latitude":"60.717","longitude":"17.167"}, {"stn":"24560","name":"FILM","latitude":"60.233","longitude":"17.9"}, {"stn":"24580","name":"UPPSALA","latitude":"59.9","longitude":"17.6"}, {"stn":"24600","name":"STOCKHOLM\/ARLANDA","latitude":"59.65","longitude":"17.95"}, {"stn":"24640","name":"STOCKHOLM\/BROMMA","latitude":"59.367","longitude":"17.9"}, {"stn":"24680","name":"STORA SPANSBERGET","latitude":"60.383","longitude":"15.133"}, {"stn":"24690","name":"TULLINGE","latitude":"59.183","longitude":"17.917"}, {"stn":"24740","name":"SINGO ISLAND","latitude":"60.167","longitude":"18.75"}, {"stn":"24760","name":"FLODA","latitude":"59.05","longitude":"16.4"}, {"stn":"24810","name":"SALA","latitude":"59.917","longitude":"16.683"}, {"stn":"24820","name":"KERSTINBO","latitude":"60.267","longitude":"16.983"}, {"stn":"24853","name":"SKAVSTA","latitude":"58.783","longitude":"16.9"}, {"stn":"24860","name":"ADELSO","latitude":"59.367","longitude":"17.517"}, {"stn":"24880","name":"ORSKAR","latitude":"60.533","longitude":"18.383"}, {"stn":"24900","name":"SVANBERGA","latitude":"59.833","longitude":"18.633"}, {"stn":"24960","name":"SVENSKA HOGARNA","latitude":"59.45","longitude":"19.5"}, {"stn":"25000","name":"NORDKOSTER","latitude":"58.9","longitude":"11"}, {"stn":"25050","name":"MASESKAR","latitude":"58.1","longitude":"11.333"}, {"stn":"25080","name":"MASESKAR (LGT-H)","latitude":"58.1","longitude":"11.35"}, {"stn":"25103","name":"TROLLHATTAN VANERSB","latitude":"58.317","longitude":"12.333"}, {"stn":"25105","name":"DATSAV3 VIRT STATION (SINGAPORE)","latitude":"1.383","longitude":"103.717"}, {"stn":"25120","name":"GOTEBORG\/SAVE","latitude":"57.783","longitude":"11.883"}, {"stn":"25130","name":"GOTEBORG","latitude":"57.717","longitude":"12"}, {"stn":"25160","name":"VINGA","latitude":"57.633","longitude":"11.617"}, {"stn":"25180","name":"NIDINGEN","latitude":"57.3","longitude":"11.9"}, {"stn":"25200","name":"SATENAS","latitude":"58.433","longitude":"12.717"}, {"stn":"25230","name":"TROLLHATTAN\/VANERS","latitude":"58.317","longitude":"12.333"}, {"stn":"25240","name":"MOLLA","latitude":"57.933","longitude":"13.067"}, {"stn":"25260","name":"GOTEBORG\/LANDVETTER","latitude":"57.667","longitude":"12.3"}, {"stn":"25300","name":"NASHUVUD","latitude":"58.9","longitude":"13.25"}, {"stn":"25350","name":"SKOVDE AIRPORT","latitude":"58.45","longitude":"13.967"}, {"stn":"25360","name":"RANGEDALA","latitude":"57.783","longitude":"13.167"}, {"stn":"25410","name":"SNAVLUNDA","latitude":"58.967","longitude":"14.9"}, {"stn":"25420","name":"HALLUM","latitude":"58.317","longitude":"13.033"}, {"stn":"25440","name":"KARLSBORG(SAFB)","latitude":"58.517","longitude":"14.533"}, {"stn":"25480","name":"VISINGSO","latitude":"58.1","longitude":"14.417"}, {"stn":"25490","name":"TOMTABACKEN","latitude":"57.5","longitude":"14.467"}, {"stn":"25500","name":"JONKOPING\/AXAMO","latitude":"57.75","longitude":"14.083"}, {"stn":"25520","name":"MALEXANDER","latitude":"58.067","longitude":"15.233"}, {"stn":"25540","name":"KETTSTAKA","latitude":"58.717","longitude":"15.033"}, {"stn":"25550","name":"NASSJO","latitude":"57.65","longitude":"14.7"}, {"stn":"25560","name":"HAGSHULT","latitude":"57.3","longitude":"14.133"}, {"stn":"25580","name":"KOLMARDEN-STROMSFOR","latitude":"58.683","longitude":"16.317"}, {"stn":"25590","name":"GLADHAMMAR","latitude":"57.7","longitude":"16.467"}, {"stn":"25620","name":"LINKOPING\/MALMSLATT","latitude":"58.4","longitude":"15.533"}, {"stn":"25625","name":"SAAB","latitude":"58.4","longitude":"15.667"}, {"stn":"25630","name":"HARSTENA","latitude":"58.25","longitude":"17.017"}, {"stn":"25635","name":"ANGELHOLM","latitude":"56.3","longitude":"12.85"}, {"stn":"25640","name":"MALEXANDER","latitude":"58.067","longitude":"15.233"}, {"stn":"25660","name":"MALILLA","latitude":"57.4","longitude":"15.817"}, {"stn":"25670","name":"LANDSORT","latitude":"58.75","longitude":"17.867"}, {"stn":"25700","name":"NORRKOPING\/BRAVALLA","latitude":"58.617","longitude":"16.117"}, {"stn":"25710","name":"NORRKOPING\/KUNGSANG","latitude":"58.583","longitude":"16.149"}, {"stn":"25720","name":"NYKOPING\/SKAVST AFB","latitude":"58.783","longitude":"16.917"}, {"stn":"25740","name":"NORRKOPING","latitude":"58.583","longitude":"16.149"}, {"stn":"25750","name":"OLANDS NORRA UDDE","latitude":"57.367","longitude":"17.1"}, {"stn":"25760","name":"GLADHAMMAR","latitude":"57.783","longitude":"16.6"}, {"stn":"25820","name":"LANDSORT","latitude":"58.75","longitude":"17.867"}, {"stn":"25840","name":"GOTSKA SANDON","latitude":"58.4","longitude":"19.2"}, {"stn":"25860","name":"HARSTENA","latitude":"58.25","longitude":"17.017"}, {"stn":"25880","name":"FARO ISLAND","latitude":"57.9","longitude":"19.167"}, {"stn":"25890","name":"GOTSKA SANDON","latitude":"58.4","longitude":"19.2"}, {"stn":"25900","name":"VISBY","latitude":"57.667","longitude":"18.35"}, {"stn":"25920","name":"OLANDS NORRA UDDE","latitude":"57.367","longitude":"17.1"}, {"stn":"26040","name":"HALMSTAD (SWE-AFB)","latitude":"56.683","longitude":"12.833"}, {"stn":"26050","name":"HALLANDS VADERO","latitude":"56.45","longitude":"12.55"}, {"stn":"26060","name":"KULLEN (LGT-H)","latitude":"56.3","longitude":"12.45"}, {"stn":"26070","name":"ANGELHOLM","latitude":"56.3","longitude":"12.85"}, {"stn":"26110","name":"HELSINGBORG","latitude":"56.033","longitude":"12.767"}, {"stn":"26160","name":"FALSTERBO","latitude":"55.383","longitude":"12.817"}, {"stn":"26200","name":"TORUP","latitude":"56.967","longitude":"13.067"}, {"stn":"26220","name":"LJUNGBY","latitude":"56.85","longitude":"13.883"}, {"stn":"26230","name":"HORBY","latitude":"55.867","longitude":"13.667"}, {"stn":"26250","name":"SKILLINGE","latitude":"55.483","longitude":"14.317"}, {"stn":"26260","name":"OSBY","latitude":"56.367","longitude":"13.95"}, {"stn":"26280","name":"HANO","latitude":"56.017","longitude":"14.85"}, {"stn":"26300","name":"LJUNGBYHED(SWE-AFB)","latitude":"56.083","longitude":"13.233"}, {"stn":"26350","name":"MALMO","latitude":"55.567","longitude":"13.067"}, {"stn":"26360","name":"MALMO\/STURUP","latitude":"55.55","longitude":"13.367"}, {"stn":"26380","name":"SMYGEHUK (LGT-H)","latitude":"55.333","longitude":"13.35"}, {"stn":"26390","name":"YSTAD","latitude":"55.433","longitude":"13.833"}, {"stn":"26400","name":"VAXJO\/URASA(SAFB)","latitude":"56.867","longitude":"14.8"}, {"stn":"26410","name":"VAXJO\/KRONOBERG","latitude":"56.933","longitude":"14.733"}, {"stn":"26440","name":"OLANDS SODRA UDDE","latitude":"56.2","longitude":"16.4"}, {"stn":"26480","name":"VAXJO","latitude":"56.85","longitude":"14.833"}, {"stn":"26500","name":"HANO ISLAND (LGT-H)","latitude":"56.017","longitude":"14.85"}, {"stn":"26510","name":"KRISTIANSTAD\/EVEROD","latitude":"55.917","longitude":"14.083"}, {"stn":"26610","name":"KOSTA","latitude":"56.85","longitude":"15.45"}, {"stn":"26640","name":"RONNEBY\/KALLINGE","latitude":"56.267","longitude":"15.267"}, {"stn":"26660","name":"UNGSKAR","latitude":"56.033","longitude":"15.8"}, {"stn":"26700","name":"KALMAR","latitude":"56.683","longitude":"16.3"}, {"stn":"26720","name":"KALMAR","latitude":"56.733","longitude":"16.3"}, {"stn":"26800","name":"HOBURG","latitude":"56.917","longitude":"18.15"}, {"stn":"27550","name":"YLIVIESKA AIRPORT","latitude":"64.033","longitude":"24.717"}, {"stn":"27900","name":"KUMLINGE KK","latitude":"60.25","longitude":"20.75"}, {"stn":"28010","name":"KILPISJARVI","latitude":"69.05","longitude":"20.783"}, {"stn":"28050","name":"KEVO","latitude":"69.75","longitude":"27.033"}, {"stn":"28070","name":"IVALO","latitude":"68.617","longitude":"27.417"}, {"stn":"28075","name":"ENONTEKIO","latitude":"68.35","longitude":"23.417"}, {"stn":"28230","name":"MUONIO","latitude":"67.967","longitude":"23.683"}, {"stn":"28234","name":"KITTILA","latitude":"67.7","longitude":"24.833"}, {"stn":"28360","name":"SODANKYLA","latitude":"67.367","longitude":"26.65"}, {"stn":"28440","name":"PELLO","latitude":"66.8","longitude":"24"}, {"stn":"28450","name":"ROVANIEMI","latitude":"66.567","longitude":"25.833"}, {"stn":"28480","name":"SALLA","latitude":"66.817","longitude":"28.667"}, {"stn":"28490","name":"SALLA KK","latitude":"66.833","longitude":"28.683"}, {"stn":"28640","name":"KEMI","latitude":"65.783","longitude":"24.583"}, {"stn":"28650","name":"KUIVANIEMI","latitude":"65.517","longitude":"25.267"}, {"stn":"28660","name":"PUDASJARVI","latitude":"65.4","longitude":"26.967"}, {"stn":"28670","name":"PUDASJARVI","latitude":"65.367","longitude":"27.017"}, {"stn":"28690","name":"KUUSAMO","latitude":"65.967","longitude":"29.183"}, {"stn":"28730","name":"MARJANIEM","latitude":"65.033","longitude":"24.567"}, {"stn":"28740","name":"HAILUOTO","latitude":"65.033","longitude":"24.733"}, {"stn":"28750","name":"OULU","latitude":"64.933","longitude":"25.367"}, {"stn":"28790","name":"SUOMUSSALMI","latitude":"64.9","longitude":"29.017"}, {"stn":"28970","name":"KAJAANI","latitude":"64.283","longitude":"27.683"}, {"stn":"29010","name":"MASSKAR","latitude":"63.733","longitude":"22.583"}, {"stn":"29030","name":"KRUUNUPYY","latitude":"63.717","longitude":"23.15"}, {"stn":"29050","name":"NIVALA","latitude":"63.917","longitude":"24.967"}, {"stn":"29100","name":"VALASSAARET","latitude":"63.433","longitude":"21.067"}, {"stn":"29110","name":"VAASA AIRPORT","latitude":"63.05","longitude":"21.767"}, {"stn":"29130","name":"KAUHAVA","latitude":"63.1","longitude":"23.033"}, {"stn":"29135","name":"KRUUNUPYY","latitude":"63.717","longitude":"23.133"}, {"stn":"29150","name":"VIITASAARI","latitude":"63.083","longitude":"25.867"}, {"stn":"29170","name":"KUOPIO","latitude":"63.017","longitude":"27.8"}, {"stn":"29190","name":"ILOMANTSI","latitude":"62.683","longitude":"30.95"}, {"stn":"29210","name":"MOIKIPAA","latitude":"62.883","longitude":"21.1"}, {"stn":"29240","name":"AHTARI","latitude":"62.533","longitude":"24.017"}, {"stn":"29290","name":"JOENSUU","latitude":"62.667","longitude":"29.633"}, {"stn":"29350","name":"JYVASKYLA","latitude":"62.4","longitude":"25.683"}, {"stn":"29390","name":"ILOMANTSI MEKRIJARV","latitude":"62.767","longitude":"30.967"}, {"stn":"29420","name":"NIINISALO","latitude":"61.85","longitude":"22.467"}, {"stn":"29430","name":"TAMPERE\/HARMALA","latitude":"61.45","longitude":"23.75"}, {"stn":"29440","name":"TAMPERE\/PIRKKALA","latitude":"61.417","longitude":"23.583"}, {"stn":"29450","name":"HALLI","latitude":"61.85","longitude":"24.8"}, {"stn":"29470","name":"MIKKELI","latitude":"61.733","longitude":"27.3"}, {"stn":"29480","name":"SAVONLINNA","latitude":"61.95","longitude":"28.95"}, {"stn":"29490","name":"PUNKAHARJU","latitude":"61.8","longitude":"29.317"}, {"stn":"29520","name":"PORI","latitude":"61.467","longitude":"21.8"}, {"stn":"29530","name":"HAMEENLINNA","latitude":"60.983","longitude":"24.45"}, {"stn":"29580","name":"LAPPEENRANTA","latitude":"61.05","longitude":"28.2"}, {"stn":"29610","name":"KUUSKAJASKARI","latitude":"61.133","longitude":"21.367"}, {"stn":"29630","name":"JOKIOINEN","latitude":"60.817","longitude":"23.5"}, {"stn":"29640","name":"KUSTAVI ISOKARI","latitude":"60.717","longitude":"21.017"}, {"stn":"29650","name":"LAHTI","latitude":"60.967","longitude":"25.633"}, {"stn":"29660","name":"UTTI","latitude":"60.9","longitude":"26.933"}, {"stn":"29670","name":"KOTKA HAAPASAARI","latitude":"60.283","longitude":"27.183"}, {"stn":"29700","name":"MARIEHAMN\/ALAND ISL","latitude":"60.117","longitude":"19.9"}, {"stn":"29710","name":"JOMALA","latitude":"60.15","longitude":"19.867"}, {"stn":"29720","name":"TURKU","latitude":"60.517","longitude":"22.267"}, {"stn":"29730","name":"SUOMUSJARVI","latitude":"60.4","longitude":"23.767"}, {"stn":"29740","name":"HELSINKI-VANTAA","latitude":"60.317","longitude":"24.967"}, {"stn":"29750","name":"HELSINKI-MALMI","latitude":"60.25","longitude":"25.05"}, {"stn":"29760","name":"RANKKI","latitude":"60.367","longitude":"26.967"}, {"stn":"29800","name":"NYHAMN","latitude":"59.967","longitude":"19.967"}, {"stn":"29810","name":"UTO","latitude":"59.783","longitude":"21.383"}, {"stn":"29820","name":"RUSSARO","latitude":"59.767","longitude":"22.95"}, {"stn":"29840","name":"BAGASKAR","latitude":"59.933","longitude":"24.017"}, {"stn":"29860","name":"KATAJALUOTO","latitude":"60.1","longitude":"24.917"}, {"stn":"29880","name":"ISOSAARI","latitude":"60.1","longitude":"25.067"}, {"stn":"29900","name":"KUMLINGE ISLAND","latitude":"60.3","longitude":"20.75"}, {"stn":"30010","name":"MUCKLE FLUGGA","latitude":"60.85","longitude":"-0.883"}, {"stn":"30030","name":"SUMBURGH (CAPE)","latitude":"59.883","longitude":"-1.3"}, {"stn":"30040","name":"COLLAFIRTH HILL","latitude":"60.533","longitude":"-1.383"}, {"stn":"30050","name":"LERWICK","latitude":"60.133","longitude":"-1.183"}, {"stn":"30060","name":"SELLA NESS","latitude":"60.45","longitude":"-1.267"}, {"stn":"30080","name":"FAIR ISLE","latitude":"59.533","longitude":"-1.633"}, {"stn":"30100","name":"SULE SKERRY","latitude":"59.083","longitude":"-4.4"}, {"stn":"30130","name":"FOULA","latitude":"60.15","longitude":"-2.067"}, {"stn":"30170","name":"KIRKWALL AIRPORT","latitude":"58.95","longitude":"-2.9"}, {"stn":"30220","name":"BENBECULA ISLAND","latitude":"57.467","longitude":"-7.367"}, {"stn":"30230","name":"SOUTH UIST RANGE","latitude":"57.333","longitude":"-7.367"}, {"stn":"30240","name":"HYSKEIR (LGT-H)","latitude":"56.967","longitude":"-6.683"}, {"stn":"30250","name":"BUTT OF LEWIS (LH)","latitude":"58.517","longitude":"-6.267"}, {"stn":"30260","name":"STORNOWAY","latitude":"58.217","longitude":"-6.317"}, {"stn":"30280","name":"NEIST POINT (LGT-H)","latitude":"57.417","longitude":"-6.783"}, {"stn":"30320","name":"RUBH RE","latitude":"57.867","longitude":"-5.817"}, {"stn":"30370","name":"SKYE\/LUSA","latitude":"57.25","longitude":"-5.8"}, {"stn":"30490","name":"CAPE WRATH (LGT-H)","latitude":"58.633","longitude":"-5"}, {"stn":"30570","name":"FOYERS","latitude":"57.267","longitude":"-4.483"}, {"stn":"30580","name":"INVERGORDON HARBOUR","latitude":"57.683","longitude":"-4.167"}, {"stn":"30590","name":"INVERNESS\/DALCROSS","latitude":"57.533","longitude":"-4.05"}, {"stn":"30610","name":"TARBAT NESS (CAPE)","latitude":"57.867","longitude":"-3.767"}, {"stn":"30620","name":"TAIN RANGE","latitude":"57.817","longitude":"-3.967"}, {"stn":"30630","name":"AVIEMORE","latitude":"57.2","longitude":"-3.833"}, {"stn":"30660","name":"KINLOSS","latitude":"57.65","longitude":"-3.567"}, {"stn":"30680","name":"LOSSIEMOUTH","latitude":"57.717","longitude":"-3.317"}, {"stn":"30700","name":"GLENLIVET","latitude":"57.35","longitude":"-3.35"}, {"stn":"30750","name":"WICK","latitude":"58.45","longitude":"-3.083"}, {"stn":"30890","name":"USAN","latitude":"56.683","longitude":"-2.45"}, {"stn":"30910","name":"ABERDEEN\/DYCE AIRPO","latitude":"57.2","longitude":"-2.217"}, {"stn":"30920","name":"PETERHEAD HARBOUR","latitude":"57.5","longitude":"-1.767"}, {"stn":"30930","name":"FRASERBURGH (LGT-H)","latitude":"57.683","longitude":"-2"}, {"stn":"30940","name":"ROSEHEARTY","latitude":"57.7","longitude":"-2.117"}, {"stn":"31000","name":"TIREE","latitude":"56.5","longitude":"-6.883"}, {"stn":"31020","name":"ORSAY (LGT-H)","latitude":"55.667","longitude":"-6.5"}, {"stn":"31050","name":"ISLAY\/PORT ELLEN","latitude":"55.683","longitude":"-6.25"}, {"stn":"31060","name":"RHUVAAL","latitude":"55.917","longitude":"-6.133"}, {"stn":"31110","name":"MACHRIHANISH","latitude":"55.433","longitude":"-5.7"}, {"stn":"31140","name":"OBAN","latitude":"56.417","longitude":"-5.467"}, {"stn":"31180","name":"CORSEWALL PT. (LH)","latitude":"55","longitude":"-5.15"}, {"stn":"31310","name":"MULL OF GALLOWAY LH","latitude":"54.633","longitude":"-4.85"}, {"stn":"31320","name":"WEST FREUGH","latitude":"54.85","longitude":"-4.95"}, {"stn":"31330","name":"SLOY","latitude":"56.25","longitude":"-4.717"}, {"stn":"31340","name":"GLASGOW BISHOPTON","latitude":"55.9","longitude":"-4.533"}, {"stn":"31350","name":"PRESTWICK(CIV\/NAVY)","latitude":"55.5","longitude":"-4.583"}, {"stn":"31360","name":"PRESTWICK RNAS","latitude":"55.517","longitude":"-4.583"}, {"stn":"31370","name":"WHITHORN","latitude":"54.7","longitude":"-4.417"}, {"stn":"31380","name":"GREENOCK MRCC","latitude":"55.967","longitude":"-4.8"}, {"stn":"31390","name":"SAUGHALL","latitude":"55.6","longitude":"-4.217"}, {"stn":"31394","name":"CAMPBELTOWN","latitude":"55.433","longitude":"-5.683"}, {"stn":"31400","name":"GLASGOW AIRPORT","latitude":"55.867","longitude":"-4.433"}, {"stn":"31450","name":"GLASGOW WEA. CEN.","latitude":"55.867","longitude":"-4.267"}, {"stn":"31540","name":"DUMFRIES\/DRUNGANS","latitude":"55.05","longitude":"-3.65"}, {"stn":"31590","name":"DATSAV3 VIRT STATION (UNITED KINGDOM)","latitude":"-67.767","longitude":"-68.917"}, {"stn":"31600","name":"EDINBURGH AIRPORT","latitude":"55.95","longitude":"-3.35"}, {"stn":"31620","name":"ESKDALEMUIR","latitude":"55.317","longitude":"-3.2"}, {"stn":"31634","name":"DUNDEE","latitude":"56.45","longitude":"-3.017"}, {"stn":"31650","name":"SPADEADAM","latitude":"55.05","longitude":"-2.55"}, {"stn":"31660","name":"EDINBURGH GOGARBANK","latitude":"55.933","longitude":"-3.35"}, {"stn":"31670","name":"BASS ROCK (LGT-H)","latitude":"56.083","longitude":"-2.633"}, {"stn":"31710","name":"LEUCHARS","latitude":"56.4","longitude":"-2.867"}, {"stn":"31740","name":"FIFE NESS","latitude":"56.3","longitude":"-2.583"}, {"stn":"31760","name":"CARTERHOUSE","latitude":"55.367","longitude":"-2.517"}, {"stn":"31770","name":"BELL ROCK (LGT-H)","latitude":"56.433","longitude":"-2.4"}, {"stn":"31850","name":"ST. ABBS HEAD (LH)","latitude":"55.917","longitude":"-2.133"}, {"stn":"31900","name":"SEAHOUSES","latitude":"55.583","longitude":"-1.65"}, {"stn":"32040","name":"ISLE OF MAN\/RONALDS","latitude":"54.083","longitude":"-4.633"}, {"stn":"32080","name":"POINT OF AYRE (LH)","latitude":"54.417","longitude":"-4.367"}, {"stn":"32090","name":"DRUMBURGH","latitude":"54.933","longitude":"-3.15"}, {"stn":"32110","name":"ST. BEES HEAD (LH)","latitude":"54.517","longitude":"-3.633"}, {"stn":"32150","name":"ASPATRIA","latitude":"54.767","longitude":"-3.317"}, {"stn":"32220","name":"CARLISLE","latitude":"54.933","longitude":"-2.95"}, {"stn":"32240","name":"SPADEADAM","latitude":"55.05","longitude":"-2.55"}, {"stn":"32380","name":"ALBEMARLE","latitude":"55.017","longitude":"-1.867"}, {"stn":"32400","name":"BOULMER","latitude":"55.417","longitude":"-1.6"}, {"stn":"32431","name":"NEWCASTLE\/WOOLSING.","latitude":"55.033","longitude":"-1.683"}, {"stn":"32433","name":"NEWCASTLE","latitude":"55.033","longitude":"-1.683"}, {"stn":"32440","name":"DATSAV3 VIRT STATION (UNITED KINGDOM)","latitude":"-67.767","longitude":"-68.917"}, {"stn":"32450","name":"NEWCASTLE WX CENTRE","latitude":"54.967","longitude":"-1.617"}, {"stn":"32460","name":"NEWCASTLE WEATHER C","latitude":"54.983","longitude":"-1.6"}, {"stn":"32570","name":"LEEMING","latitude":"54.3","longitude":"-1.533"}, {"stn":"32610","name":"DISFORTH AIRFIELD","latitude":"54.133","longitude":"-1.417"}, {"stn":"32620","name":"TYNEMOUTH","latitude":"55.017","longitude":"-1.417"}, {"stn":"32635","name":"TEESSIDE","latitude":"54.5","longitude":"-1.417"}, {"stn":"32643","name":"TOPCLIFFE","latitude":"54.2","longitude":"-1.383"}, {"stn":"32660","name":"LINTON-ON-OUSE","latitude":"54.05","longitude":"-1.25"}, {"stn":"32750","name":"LOFTUS SAMOS","latitude":"54.567","longitude":"-0.867"}, {"stn":"32810","name":"FYLINGDALES","latitude":"54.367","longitude":"-0.667"}, {"stn":"32820","name":"WHITBY","latitude":"54.483","longitude":"-0.6"}, {"stn":"32920","name":"BRIDLINGTON MRSC","latitude":"54.1","longitude":"-0.167"}, {"stn":"33020","name":"VALLEY","latitude":"53.25","longitude":"-4.533"}, {"stn":"33110","name":"DATSAV3 VIRT STATION (UNITED KINGDOM)","latitude":"-67.767","longitude":"-68.917"}, {"stn":"33160","name":"CROSBY","latitude":"53.5","longitude":"-3.067"}, {"stn":"33180","name":"BLACKPOOL AIRPORT","latitude":"53.767","longitude":"-3.033"}, {"stn":"33210","name":"HAWARDEN","latitude":"53.167","longitude":"-2.983"}, {"stn":"33220","name":"AUGHTON","latitude":"53.55","longitude":"-2.917"}, {"stn":"33230","name":"LIVERPOOL AIRPORT","latitude":"53.333","longitude":"-2.85"}, {"stn":"33233","name":"LIVERPOOL","latitude":"53.333","longitude":"-2.85"}, {"stn":"33300","name":"LEEK THORNCLIFFE","latitude":"53.133","longitude":"-1.983"}, {"stn":"33340","name":"MANCHESTER AIRPORT","latitude":"53.35","longitude":"-2.283"}, {"stn":"33350","name":"MANCHESTER\/BARTON","latitude":"53.483","longitude":"-2.25"}, {"stn":"33380","name":"CELLARHEAD","latitude":"53.033","longitude":"-2.083"}, {"stn":"33430","name":"HUDDERSFIELD\/OAKES","latitude":"53.65","longitude":"-1.833"}, {"stn":"33440","name":"BINGLEY NO.2","latitude":"53.817","longitude":"-1.867"}, {"stn":"33450","name":"EMLEY MOOR","latitude":"53.617","longitude":"-1.667"}, {"stn":"33463","name":"LEEDS BRADFORD","latitude":"53.867","longitude":"-1.65"}, {"stn":"33470","name":"LEEDS WEATHER CTR","latitude":"53.8","longitude":"-1.55"}, {"stn":"33480","name":"WOODFORD","latitude":"53.333","longitude":"-2.15"}, {"stn":"33540","name":"NOTTINGHAM\/WATNALL","latitude":"53","longitude":"-1.25"}, {"stn":"33550","name":"CHURCH FENTON","latitude":"53.833","longitude":"-1.2"}, {"stn":"33600","name":"FINNINGLEY(RAF)","latitude":"53.483","longitude":"-1"}, {"stn":"33730","name":"SCAMPTON","latitude":"53.3","longitude":"-0.55"}, {"stn":"33735","name":"HUMBERSIDE","latitude":"53.567","longitude":"-0.35"}, {"stn":"33770","name":"WADDINGTON","latitude":"53.167","longitude":"-0.517"}, {"stn":"33790","name":"CRANWELL","latitude":"53.033","longitude":"-0.5"}, {"stn":"33820","name":"LECONFIELD","latitude":"53.867","longitude":"-0.433"}, {"stn":"33850","name":"DONNA NOOK NO.2","latitude":"53.483","longitude":"0.083"}, {"stn":"33870","name":"EASINGTON","latitude":"53.667","longitude":"0.117"}, {"stn":"33880","name":"BINBROOK(RAF)","latitude":"53.45","longitude":"-0.2"}, {"stn":"33910","name":"CONINGSBY","latitude":"53.083","longitude":"-0.167"}, {"stn":"33920","name":"WAINFLEET","latitude":"53.083","longitude":"0.267"}, {"stn":"33950","name":"DATSAV3 VIRT STATION (UNITED KINGDOM)","latitude":"-67.767","longitude":"-68.917"}, {"stn":"33960","name":"SPURN HEAD (POINT)","latitude":"53.617","longitude":"0.15"}, {"stn":"34000","name":"BARDSEY ISL (LGT-H)","latitude":"52.75","longitude":"-4.8"}, {"stn":"34054","name":"DONCASTER SHEFFIELD","latitude":"53.483","longitude":"1"}, {"stn":"34140","name":"SHAWBURY","latitude":"52.8","longitude":"-2.667"}, {"stn":"34185","name":"EAST MIDLANDS","latitude":"52.833","longitude":"-1.317"}, {"stn":"34530","name":"COTTESMORE","latitude":"52.733","longitude":"-0.65"}, {"stn":"34620","name":"WITTERING","latitude":"52.617","longitude":"-0.467"}, {"stn":"34690","name":"HOLBEACH","latitude":"52.867","longitude":"0.15"}, {"stn":"34820","name":"MARHAM","latitude":"52.65","longitude":"0.567"}, {"stn":"34873","name":"SCULTHORPE (AF MET)","latitude":"52.85","longitude":"0.767"}, {"stn":"34920","name":"NORWICH WEA CNTRE","latitude":"52.633","longitude":"1.317"}, {"stn":"34940","name":"CROMER","latitude":"52.833","longitude":"1.333"}, {"stn":"34950","name":"COLTISHALL","latitude":"52.767","longitude":"1.35"}, {"stn":"34960","name":"HEMSBY","latitude":"52.683","longitude":"1.683"}, {"stn":"34970","name":"GORLESTON","latitude":"52.583","longitude":"1.717"}, {"stn":"35020","name":"ABERPORTH","latitude":"52.133","longitude":"-4.567"}, {"stn":"35110","name":"NEWCASTLE ON CLUN","latitude":"52.433","longitude":"-3.117"}, {"stn":"35220","name":"HEREFORD\/CREDENHILL","latitude":"52.083","longitude":"-2.8"}, {"stn":"35270","name":"GREAT MALVERN","latitude":"52.117","longitude":"-2.3"}, {"stn":"35280","name":"PERSHORE","latitude":"52.133","longitude":"-2.033"}, {"stn":"35310","name":"BIRMINGHAM\/EDBASTON","latitude":"52.483","longitude":"-1.933"}, {"stn":"35340","name":"BIRMINGHAM AIRPORT","latitude":"52.45","longitude":"-1.733"}, {"stn":"35350","name":"COLESHILL","latitude":"52.483","longitude":"-1.683"}, {"stn":"35413","name":"COVENTRY","latitude":"52.367","longitude":"-1.467"}, {"stn":"35580","name":"BEDFORD AIRPORT","latitude":"52.217","longitude":"-0.483"}, {"stn":"35590","name":"CARDINGTON","latitude":"52.1","longitude":"-0.417"}, {"stn":"35621","name":"ALCONBURY RAF","latitude":"52.367","longitude":"-0.217"}, {"stn":"35623","name":"ALCONBURY RAF","latitude":"52.367","longitude":"-0.217"}, {"stn":"35660","name":"WYTON(RAF)","latitude":"52.35","longitude":"-0.117"}, {"stn":"35661","name":"ISLAY","latitude":"55.683","longitude":"-6.25"}, {"stn":"35715","name":"CAMBRIDGE","latitude":"52.2","longitude":"0.167"}, {"stn":"35770","name":"MILDENHALL RAF","latitude":"52.367","longitude":"0.483"}, {"stn":"35771","name":"MILDENHALL RAF","latitude":"52.367","longitude":"0.483"}, {"stn":"35773","name":"MILDENHALL RAF","latitude":"52.367","longitude":"0.483"}, {"stn":"35830","name":"LAKENHEATH RAF","latitude":"52.417","longitude":"0.567"}, {"stn":"35831","name":"LAKENHEATH RAF","latitude":"52.4","longitude":"0.567"}, {"stn":"35833","name":"LAKENHEATH RAF","latitude":"52.4","longitude":"0.567"}, {"stn":"35860","name":"HONINGTON","latitude":"52.333","longitude":"0.767"}, {"stn":"35881","name":"SHEPHERDS GROVE","latitude":"52.317","longitude":"0.917"}, {"stn":"35900","name":"WATTISHAM","latitude":"52.117","longitude":"0.967"}, {"stn":"35951","name":"WOODBRIDGE RAF","latitude":"52.083","longitude":"1.4"}, {"stn":"35953","name":"WOODBRIDGE RAF","latitude":"52.083","longitude":"1.4"}, {"stn":"35961","name":"BENTWATERS RAF","latitude":"52.133","longitude":"1.433"}, {"stn":"35963","name":"BENTWATERS RAF","latitude":"52.133","longitude":"1.433"}, {"stn":"36030","name":"BRAWDY(RAF)","latitude":"51.883","longitude":"-5.117"}, {"stn":"36040","name":"MILFORD HAVEN","latitude":"51.7","longitude":"-5.05"}, {"stn":"36050","name":"PEMBREY SANDS","latitude":"51.717","longitude":"-4.367"}, {"stn":"36090","name":"MUMBLES","latitude":"51.567","longitude":"-3.983"}, {"stn":"36110","name":"BRYNAMMAN","latitude":"51.817","longitude":"-3.867"}, {"stn":"36140","name":"CILFYNYDD","latitude":"51.633","longitude":"-3.3"}, {"stn":"36280","name":"FILTON","latitude":"51.517","longitude":"-2.583"}, {"stn":"36330","name":"GLOUCESTER","latitude":"51.867","longitude":"-2.217"}, {"stn":"36333","name":"GLOUCESTERSHIRE","latitude":"51.883","longitude":"-2.167"}, {"stn":"36440","name":"FAIRFORD RAF","latitude":"51.683","longitude":"-1.783"}, {"stn":"36490","name":"BRIZE NORTON","latitude":"51.75","longitude":"-1.583"}, {"stn":"36530","name":"ABINGDON(RAF)","latitude":"51.683","longitude":"-1.317"}, {"stn":"36551","name":"UPPER HEYFORD RAF","latitude":"51.933","longitude":"-1.25"}, {"stn":"36553","name":"UPPER HEYFORD RAF","latitude":"51.933","longitude":"-1.25"}, {"stn":"36580","name":"BENSON","latitude":"51.617","longitude":"-1.083"}, {"stn":"36600","name":"HIGH WYCOMBE HQSTC","latitude":"51.683","longitude":"-0.8"}, {"stn":"36690","name":"DATSAV3 VIRT STATION (UNITED KINGDOM)","latitude":"-67.767","longitude":"-68.917"}, {"stn":"36720","name":"NORTHOLT","latitude":"51.55","longitude":"-0.417"}, {"stn":"36731","name":"LUTON ARPT","latitude":"51.883","longitude":"-0.367"}, {"stn":"36733","name":"LUTON","latitude":"51.867","longitude":"-0.367"}, {"stn":"36830","name":"STANSTED AIRPORT","latitude":"51.883","longitude":"0.233"}, {"stn":"36840","name":"ANDREWSFIELD","latitude":"51.883","longitude":"0.45"}, {"stn":"36880","name":"WETHERSFIELD(RAF)","latitude":"51.967","longitude":"0.5"}, {"stn":"36911","name":"SOUTHEND AIRPORT","latitude":"51.567","longitude":"0.7"}, {"stn":"36913","name":"SOUTHEND","latitude":"51.567","longitude":"0.683"}, {"stn":"36930","name":"SHOEBURYNESS","latitude":"51.55","longitude":"0.833"}, {"stn":"36960","name":"WALTON-ON-NAZE","latitude":"51.85","longitude":"1.283"}, {"stn":"37020","name":"LUNDY ISL (LGT-H)","latitude":"51.167","longitude":"-4.65"}, {"stn":"37030","name":"HARTLAND POINT","latitude":"51.017","longitude":"-4.533"}, {"stn":"37040","name":"HARTLAND","latitude":"50.983","longitude":"-4.467"}, {"stn":"37070","name":"CHIVENOR","latitude":"51.083","longitude":"-4.15"}, {"stn":"37110","name":"EXTON","latitude":"51","longitude":"-3.483"}, {"stn":"37120","name":"TIVINGTON","latitude":"51.2","longitude":"-3.533"}, {"stn":"37150","name":"CARDIFF-WALES ARPT","latitude":"51.4","longitude":"-3.35"}, {"stn":"37160","name":"ST. ATHAN","latitude":"51.4","longitude":"-3.433"}, {"stn":"37170","name":"CARDIFF WEATHER CEN","latitude":"51.483","longitude":"-3.183"}, {"stn":"37243","name":"BRISTOL","latitude":"51.383","longitude":"-2.717"}, {"stn":"37260","name":"BRISTOL WEA CENTER","latitude":"51.467","longitude":"-2.6"}, {"stn":"37400","name":"LYNEHAM","latitude":"51.5","longitude":"-1.983"}, {"stn":"37430","name":"LARKHILL","latitude":"51.2","longitude":"-1.8"}, {"stn":"37460","name":"BOSCOMBE DOWN","latitude":"51.167","longitude":"-1.75"}, {"stn":"37490","name":"MIDDLE WALLOP","latitude":"51.15","longitude":"-1.567"}, {"stn":"37610","name":"ODIHAM","latitude":"51.233","longitude":"-0.95"}, {"stn":"37630","name":"BRACKNELL\/BEAUFORT","latitude":"51.383","longitude":"-0.783"}, {"stn":"37663","name":"BIGGIN HILL","latitude":"51.333","longitude":"0.033"}, {"stn":"37680","name":"FARNBOROUGH","latitude":"51.283","longitude":"-0.767"}, {"stn":"37683","name":"LONDON\/CITY","latitude":"51.5","longitude":"0.05"}, {"stn":"37690","name":"CHARLWOOD","latitude":"51.233","longitude":"-0.383"}, {"stn":"37720","name":"LONDON\/HEATHROW AIR","latitude":"51.483","longitude":"-0.45"}, {"stn":"37750","name":"KEW-IN-LONDON","latitude":"51.467","longitude":"-0.317"}, {"stn":"37760","name":"LONDON\/GATWICK ARPT","latitude":"51.15","longitude":"-0.183"}, {"stn":"37780","name":"LONDON WEA CENTER","latitude":"51.517","longitude":"-0.117"}, {"stn":"37790","name":"LONDON WEATHER CENT","latitude":"51.517","longitude":"-0.1"}, {"stn":"37860","name":"GRAVESEND","latitude":"51.433","longitude":"0.383"}, {"stn":"37871","name":"WEST MALLING","latitude":"51.283","longitude":"0.417"}, {"stn":"37910","name":"SHEERNESS","latitude":"51.45","longitude":"0.75"}, {"stn":"37940","name":"BECAME STN 037941","latitude":"51.15","longitude":"1.383"}, {"stn":"37960","name":"LANGDON BAY","latitude":"51.133","longitude":"1.35"}, {"stn":"37970","name":"MANSTON","latitude":"51.35","longitude":"1.367"}, {"stn":"38020","name":"SCILLY\/ROUND ISLAND","latitude":"49.983","longitude":"-6.317"}, {"stn":"38030","name":"SCILLY: ST MARYS AI","latitude":"49.917","longitude":"-6.3"}, {"stn":"38040","name":"SCILLY\/ST.MARYS","latitude":"49.933","longitude":"-6.3"}, {"stn":"38060","name":"GWENNAP HEAD","latitude":"50.033","longitude":"-5.667"}, {"stn":"38080","name":"CAMBORNE","latitude":"50.217","longitude":"-5.317"}, {"stn":"38090","name":"CULDROSE","latitude":"50.083","longitude":"-5.25"}, {"stn":"38100","name":"PENDENNIS POINT","latitude":"50.15","longitude":"-5.067"}, {"stn":"38140","name":"LIZARD","latitude":"49.95","longitude":"-5.2"}, {"stn":"38150","name":"LIZARD LIGHTHOUSE","latitude":"49.967","longitude":"-5.2"}, {"stn":"38170","name":"ST. MAWGAN","latitude":"50.433","longitude":"-5"}, {"stn":"38270","name":"PLYMOUTH MOUNT BATT","latitude":"50.35","longitude":"-4.117"}, {"stn":"38273","name":"PLYMOUTH","latitude":"50.417","longitude":"-4.1"}, {"stn":"38300","name":"BURRINGTON","latitude":"50.933","longitude":"-3.983"}, {"stn":"38340","name":"PRAWLE POINT","latitude":"50.2","longitude":"-3.717"}, {"stn":"38390","name":"EXETER AIRPORT","latitude":"50.733","longitude":"-3.417"}, {"stn":"38400","name":"DUNKESWELL AERODROM","latitude":"50.867","longitude":"-3.233"}, {"stn":"38530","name":"YEOVILTON","latitude":"51","longitude":"-2.633"}, {"stn":"38550","name":"PORTLAND BILL C.G.","latitude":"50.517","longitude":"-2.45"}, {"stn":"38570","name":"ISLE OF PORTLAND","latitude":"50.517","longitude":"-2.45"}, {"stn":"38580","name":"PORTLAND HELIPORT","latitude":"50.567","longitude":"-2.45"}, {"stn":"38620","name":"BOURNEMOUTH\/HURN","latitude":"50.783","longitude":"-1.833"}, {"stn":"38640","name":"DATSAV3 VIRT STATION (UNITED KINGDOM)","latitude":"-67.767","longitude":"-68.917"}, {"stn":"38650","name":"SOUTHAMPTON WX CNTR","latitude":"50.9","longitude":"-1.4"}, {"stn":"38660","name":"ST. CATHERINES POIN","latitude":"50.583","longitude":"-1.3"}, {"stn":"38710","name":"DATSAV3 VIRT STATION (UNITED KINGDOM)","latitude":"-67.767","longitude":"-68.917"}, {"stn":"38740","name":"SOLENT M.R.S.C.","latitude":"50.8","longitude":"-1.217"}, {"stn":"38760","name":"SHOREHAM AIRPORT","latitude":"50.833","longitude":"-0.283"}, {"stn":"38790","name":"SHOREHAM-BY-SEA","latitude":"50.817","longitude":"-0.25"}, {"stn":"38800","name":"NEWHAVEN (LGT-H)","latitude":"50.783","longitude":"0.05"}, {"stn":"38820","name":"HERSTMONCEUX","latitude":"50.9","longitude":"0.317"}, {"stn":"38840","name":"HERSTMONCEUX","latitude":"50.867","longitude":"0.333"}, {"stn":"38860","name":"FAIRLIGHT","latitude":"50.867","longitude":"0.633"}, {"stn":"38880","name":"DUNGENESS","latitude":"50.917","longitude":"0.967"}, {"stn":"38940","name":"GUERNSEY AIRPORT","latitude":"49.433","longitude":"-2.6"}, {"stn":"38950","name":"JERSEY AIRPORT","latitude":"49.217","longitude":"-2.2"}, {"stn":"39040","name":"CASTLEDERG","latitude":"54.7","longitude":"-7.583"}, {"stn":"39050","name":"CARRIGANS","latitude":"54.667","longitude":"-7.317"}, {"stn":"39060","name":"CARMONEY","latitude":"55.017","longitude":"-7.233"}, {"stn":"39084","name":"LONDONDERRY EGLINTO","latitude":"55.033","longitude":"-7.15"}, {"stn":"39170","name":"BELFAST\/ALDERGROVE","latitude":"54.65","longitude":"-6.217"}, {"stn":"39200","name":"HILLSBOROUGH","latitude":"54.483","longitude":"-6.1"}, {"stn":"39240","name":"BELFAST HARBOUR","latitude":"54.6","longitude":"-5.883"}, {"stn":"39270","name":"BANGOR HARBOUR","latitude":"54.667","longitude":"-5.667"}, {"stn":"39280","name":"LARNE","latitude":"54.85","longitude":"-5.8"}, {"stn":"39520","name":"ROCHES POINT","latitude":"51.8","longitude":"-8.25"}, {"stn":"39530","name":"VALENTIA OBSERVATOR","latitude":"51.933","longitude":"-10.25"}, {"stn":"39550","name":"CORK AIRPORT","latitude":"51.85","longitude":"-8.483"}, {"stn":"39570","name":"ROSSLARE","latitude":"52.25","longitude":"-6.333"}, {"stn":"39600","name":"KILKENNY","latitude":"52.667","longitude":"-7.267"}, {"stn":"39620","name":"SHANNON AIRPORT","latitude":"52.7","longitude":"-8.917"}, {"stn":"39640","name":"GALWAY","latitude":"53.283","longitude":"-9.017"}, {"stn":"39650","name":"BIRR","latitude":"53.083","longitude":"-7.883"}, {"stn":"39670","name":"CASEMENT AERODROME","latitude":"53.3","longitude":"-6.433"}, {"stn":"39690","name":"DUBLIN AIRPORT","latitude":"53.433","longitude":"-6.25"}, {"stn":"39700","name":"CLAREMORRIS","latitude":"53.717","longitude":"-8.983"}, {"stn":"39710","name":"MULLINGAR","latitude":"53.533","longitude":"-7.367"}, {"stn":"39730","name":"CONNAUGHT AIRPORT","latitude":"53.9","longitude":"-8.817"}, {"stn":"39740","name":"CLONES","latitude":"54.183","longitude":"-7.233"}, {"stn":"39760","name":"BELMULLET","latitude":"54.233","longitude":"-10"}, {"stn":"39800","name":"MALIN HEAD","latitude":"55.367","longitude":"-7.333"}, {"stn":"40040","name":"GUFUSKALAR","latitude":"64.9","longitude":"-23.933"}, {"stn":"40050","name":"BOLUNGAVIK","latitude":"66.15","longitude":"-23.25"}, {"stn":"40130","name":"STYKKISHOLMUR","latitude":"65.083","longitude":"-22.733"}, {"stn":"40140","name":"REYKJANESVITI","latitude":"63.817","longitude":"-22.717"}, {"stn":"40180","name":"KEFLAVIK","latitude":"63.967","longitude":"-22.6"}, {"stn":"40230","name":"HORNBJARGSVITI (LH)","latitude":"66.417","longitude":"-22.383"}, {"stn":"40300","name":"REYKJAVIK","latitude":"64.132","longitude":"-21.9"}, {"stn":"40380","name":"EYRARBAKKI","latitude":"63.867","longitude":"-21.15"}, {"stn":"40450","name":"BLONDUOS","latitude":"65.667","longitude":"-20.3"}, {"stn":"40480","name":"VESTMANNAEYJAR","latitude":"63.4","longitude":"-20.283"}, {"stn":"40530","name":"BERGSTADIR","latitude":"65.7","longitude":"-19.617"}, {"stn":"40560","name":"HVERAVELLIR","latitude":"64.867","longitude":"-19.567"}, {"stn":"40630","name":"AKUREYRI","latitude":"65.683","longitude":"-18.083"}, {"stn":"40640","name":"KIRKJUBAEJARKLAUSTU","latitude":"63.783","longitude":"-18.067"}, {"stn":"40650","name":"GRIMSEY","latitude":"66.533","longitude":"-18.017"}, {"stn":"40770","name":"RAUFARHOFN","latitude":"66.45","longitude":"-15.95"}, {"stn":"40820","name":"AKURNES","latitude":"64.3","longitude":"-15.217"}, {"stn":"40890","name":"EGILSSTADIR","latitude":"65.283","longitude":"-14.4"}, {"stn":"40970","name":"DALATANGI","latitude":"65.266","longitude":"-13.583"}, {"stn":"42000","name":"DUNDAS","latitude":"76.5","longitude":"-69"}, {"stn":"42020","name":"PITUFFIK (THULE A.B","latitude":"76.533","longitude":"-68.75"}, {"stn":"42022","name":"JAKOBSHAVN LUFTHAVN","latitude":"69.233","longitude":"-51.067"}, {"stn":"42040","name":"MANIITSOQ","latitude":"65.417","longitude":"-52.933"}, {"stn":"42180","name":"GODHAVN PORT","latitude":"69.333","longitude":"-53.583"}, {"stn":"42200","name":"AASIAAT (EGEDESMIND","latitude":"68.7","longitude":"-52.85"}, {"stn":"42210","name":"ILULISSAT (JAKOBSHA","latitude":"69.233","longitude":"-51.067"}, {"stn":"42300","name":"SISIMIUT (HOLSTEINS","latitude":"66.917","longitude":"-53.667"}, {"stn":"42310","name":"KANGERLUSSUAQ (SDR.","latitude":"67.017","longitude":"-50.7"}, {"stn":"42340","name":"SISIMIUT MITTARFIA","latitude":"66.95","longitude":"-53.717"}, {"stn":"42350","name":"DYE 1 (RED RIVER)","latitude":"66.633","longitude":"-52.867"}, {"stn":"42500","name":"NUUK (GODTHAAB)","latitude":"64.167","longitude":"-51.75"}, {"stn":"42600","name":"PAAMIUT (FREDERIKSH","latitude":"62","longitude":"-49.667"}, {"stn":"42610","name":"GROENNEDAL","latitude":"61.233","longitude":"-48.1"}, {"stn":"42700","name":"NARSARSUAQ","latitude":"61.133","longitude":"-45.433"}, {"stn":"42720","name":"QAQORTOQ (JULIANEHA","latitude":"60.717","longitude":"-46.05"}, {"stn":"42801","name":"NARSSAQ","latitude":"60.9","longitude":"-45.967"}, {"stn":"43200","name":"DANMARKSHAVN","latitude":"76.767","longitude":"-18.667"}, {"stn":"43300","name":"DANEBORG","latitude":"74.3","longitude":"-20.217"}, {"stn":"43390","name":"ITTOQQORTOORMIIT (S","latitude":"70.483","longitude":"-21.95"}, {"stn":"43400","name":"CAPE TOBIN (AUT)","latitude":"70.417","longitude":"-21.967"}, {"stn":"43500","name":"APUTITEQ (AUT)","latitude":"67.783","longitude":"-32.3"}, {"stn":"43600","name":"TASIILAQ (AMMASSALI","latitude":"65.6","longitude":"-37.633"}, {"stn":"43900","name":"PRINS CHRISTIAN SUN","latitude":"60.05","longitude":"-43.167"}, {"stn":"60090","name":"AKRABERG","latitude":"61.4","longitude":"-6.667"}, {"stn":"60100","name":"VAGAR","latitude":"62.067","longitude":"-7.283"}, {"stn":"60110","name":"TORSHAVN","latitude":"62.017","longitude":"-6.767"}, {"stn":"60120","name":"FUGLOY","latitude":"62.317","longitude":"-6.317"}, {"stn":"60210","name":"HANSTHOLM","latitude":"57.117","longitude":"8.6"}, {"stn":"60240","name":"THISTED","latitude":"57.067","longitude":"8.717"}, {"stn":"60300","name":"AALBORG","latitude":"57.1","longitude":"9.85"}, {"stn":"60410","name":"SKAGEN","latitude":"57.733","longitude":"10.633"}, {"stn":"60490","name":"HALD V","latitude":"56.567","longitude":"10.1"}, {"stn":"60520","name":"THYBOROEN","latitude":"56.7","longitude":"8.217"}, {"stn":"60580","name":"HVIDE SANDE","latitude":"56","longitude":"8.132"}, {"stn":"60590","name":"LYNGVIG","latitude":"56.05","longitude":"8.1"}, {"stn":"60600","name":"KARUP","latitude":"56.3","longitude":"9.117"}, {"stn":"60620","name":"SKIVE","latitude":"56.55","longitude":"9.167"}, {"stn":"60700","name":"TIRSTRUP","latitude":"56.317","longitude":"10.633"}, {"stn":"60710","name":"FORNAES (CAPE)","latitude":"56.45","longitude":"10.967"}, {"stn":"60740","name":"AARHUS SYD","latitude":"56.083","longitude":"10.133"}, {"stn":"60790","name":"ANHOLT","latitude":"56.717","longitude":"11.517"}, {"stn":"60800","name":"ESBJERG","latitude":"55.533","longitude":"8.567"}, {"stn":"60890","name":"SAEDENSTRAND","latitude":"55.5","longitude":"8.4"}, {"stn":"60960","name":"ROEMOE\/JUVRE","latitude":"55.183","longitude":"8.567"}, {"stn":"61040","name":"BILLUND","latitude":"55.733","longitude":"9.167"}, {"stn":"61070","name":"HORNS REV.","latitude":"55.567","longitude":"7.333"}, {"stn":"61100","name":"SKRYDSTRUP","latitude":"55.233","longitude":"9.267"}, {"stn":"61180","name":"SOENDERBORG","latitude":"54.967","longitude":"9.783"}, {"stn":"61190","name":"KEGNAES","latitude":"54.85","longitude":"9.983"}, {"stn":"61200","name":"ODENSE\/BELDRINGE","latitude":"55.483","longitude":"10.333"}, {"stn":"61230","name":"TOROE","latitude":"55.25","longitude":"9.883"}, {"stn":"61240","name":"TAASINGE","latitude":"55.017","longitude":"10.567"}, {"stn":"61410","name":"ABED","latitude":"54.833","longitude":"11.333"}, {"stn":"61430","name":"MARIBO","latitude":"54.7","longitude":"11.45"}, {"stn":"61470","name":"MON SYDOST","latitude":"54.8","longitude":"12.783"}, {"stn":"61490","name":"GEDSER ODDE","latitude":"54.567","longitude":"11.967"}, {"stn":"61500","name":"AVNO(DAFB)","latitude":"55.083","longitude":"11.783"}, {"stn":"61560","name":"HOLBAEK","latitude":"55.733","longitude":"11.6"}, {"stn":"61590","name":"ROESNAES","latitude":"55.75","longitude":"10.867"}, {"stn":"61600","name":"VAERLOESE","latitude":"55.767","longitude":"12.333"}, {"stn":"61690","name":"GNIBEN","latitude":"56.017","longitude":"11.283"}, {"stn":"61700","name":"ROSKILDE\/TUNE","latitude":"55.583","longitude":"12.133"}, {"stn":"61740","name":"KOGE\/HERFOLGE","latitude":"55.4","longitude":"12.15"}, {"stn":"61790","name":"MOEN","latitude":"54.95","longitude":"12.533"}, {"stn":"61800","name":"KOEBENHAVN\/KASTRUP","latitude":"55.617","longitude":"12.65"}, {"stn":"61900","name":"ROENNE","latitude":"55.067","longitude":"14.75"}, {"stn":"61910","name":"CHRISTIANSO (LGT-H)","latitude":"55.317","longitude":"15.183"}, {"stn":"61930","name":"HAMMER ODDE","latitude":"55.3","longitude":"14.783"}, {"stn":"61990","name":"DUEODDE (CAPE)","latitude":"55","longitude":"15.083"}, {"stn":"62000","name":"YPENBURG(NAFB)","latitude":"52.033","longitude":"4.35"}, {"stn":"62060","name":"F16-A","latitude":"54.1","longitude":"-4"}, {"stn":"62100","name":"VALKENBURG","latitude":"52.183","longitude":"4.417"}, {"stn":"62250","name":"IJMUIDEN","latitude":"52.467","longitude":"4.567"}, {"stn":"62300","name":"DATSAV3 VIRT STATION (NETHERLANDS)","latitude":"53.5","longitude":"3.15"}, {"stn":"62350","name":"DE KOOY","latitude":"52.917","longitude":"4.783"}, {"stn":"62390","name":"F3-FB-1","latitude":"54.85","longitude":"4.7"}, {"stn":"62400","name":"AMSTERDAM AP SCHIPH","latitude":"52.3","longitude":"4.767"}, {"stn":"62420","name":"VLIELAND","latitude":"53.25","longitude":"4.917"}, {"stn":"62450","name":"DATSAV3 VIRT STATION (NETHERLANDS)","latitude":"53.5","longitude":"3.15"}, {"stn":"62500","name":"TERSCHELLING(LGT-H)","latitude":"53.367","longitude":"5.217"}, {"stn":"62510","name":"TERSCHELLING HOORN","latitude":"53.383","longitude":"5.35"}, {"stn":"62600","name":"DE BILT","latitude":"52.1","longitude":"5.183"}, {"stn":"62650","name":"SOESTERBERG","latitude":"52.133","longitude":"5.283"}, {"stn":"62670","name":"STAVOREN AWS","latitude":"52.883","longitude":"5.35"}, {"stn":"62680","name":"HOUTRIB","latitude":"52.533","longitude":"5.433"}, {"stn":"62690","name":"LELYSTAD AWS","latitude":"52.45","longitude":"5.533"}, {"stn":"62693","name":"VLISSINGEN","latitude":"51.45","longitude":"3.6"}, {"stn":"62700","name":"LEEUWARDEN","latitude":"53.217","longitude":"5.767"}, {"stn":"62750","name":"DEELEN","latitude":"52.067","longitude":"5.883"}, {"stn":"62790","name":"HOOGEVEEN","latitude":"52.75","longitude":"6.517"}, {"stn":"62800","name":"GRONINGEN AP EELDE","latitude":"53.133","longitude":"6.583"}, {"stn":"62900","name":"TWENTHE","latitude":"52.267","longitude":"6.9"}, {"stn":"63000","name":"NOORDHINDER","latitude":"51.65","longitude":"2.567"}, {"stn":"63100","name":"VLISSINGEN","latitude":"51.45","longitude":"3.6"}, {"stn":"63200","name":"LE GOEREE","latitude":"51.933","longitude":"3.667"}, {"stn":"63230","name":"WILHELMINADORP AWS","latitude":"51.533","longitude":"3.9"}, {"stn":"63250","name":"ZIERIKZEE","latitude":"51.65","longitude":"3.933"}, {"stn":"63300","name":"HOEK VAN HOLLAND","latitude":"51.983","longitude":"4.1"}, {"stn":"63400","name":"WOENSDRECHT","latitude":"51.45","longitude":"4.333"}, {"stn":"63440","name":"ROTTERDAM AP ZESTIE","latitude":"51.95","longitude":"4.45"}, {"stn":"63480","name":"CABAUW TOWER","latitude":"51.967","longitude":"4.933"}, {"stn":"63500","name":"GILZE RIJEN","latitude":"51.567","longitude":"4.933"}, {"stn":"63700","name":"EINDHOVEN","latitude":"51.45","longitude":"5.417"}, {"stn":"63750","name":"VOLKEL","latitude":"51.65","longitude":"5.7"}, {"stn":"63770","name":"ELL AWS","latitude":"51.2","longitude":"5.767"}, {"stn":"63800","name":"MAASTRICHT AP ZUID","latitude":"50.917","longitude":"5.783"}, {"stn":"64000","name":"KOKSIJDE","latitude":"51.083","longitude":"2.65"}, {"stn":"64070","name":"OOSTENDE (AIRPORT)","latitude":"51.2","longitude":"2.867"}, {"stn":"64080","name":"OOSTENDE (PIER)","latitude":"51.233","longitude":"2.917"}, {"stn":"64280","name":"SEMMERZAKE","latitude":"50.933","longitude":"3.667"}, {"stn":"64310","name":"GENT\/INDUSTRIE-ZONE","latitude":"51.183","longitude":"3.817"}, {"stn":"64320","name":"CHIEVRES","latitude":"50.567","longitude":"3.833"}, {"stn":"64470","name":"UCCLE","latitude":"50.8","longitude":"4.35"}, {"stn":"64490","name":"CHARLEROI\/GOSSELIES","latitude":"50.467","longitude":"4.45"}, {"stn":"64500","name":"ANTWERPEN\/DEURNE","latitude":"51.2","longitude":"4.467"}, {"stn":"64510","name":"BRUXELLES NATIONAL","latitude":"50.9","longitude":"4.533"}, {"stn":"64560","name":"FLORENNES","latitude":"50.233","longitude":"4.65"}, {"stn":"64580","name":"BEAUVECHAIN","latitude":"50.75","longitude":"4.767"}, {"stn":"64650","name":"SCHAFFEN","latitude":"51","longitude":"5.067"}, {"stn":"64700","name":"ST. TRUIDEN (BAFB)","latitude":"50.8","longitude":"5.2"}, {"stn":"64760","name":"ST-HUBERT","latitude":"50.033","longitude":"5.4"}, {"stn":"64780","name":"BIERSET","latitude":"50.65","longitude":"5.45"}, {"stn":"64785","name":"LIEGE\/BIERSET(BAFB)","latitude":"50.633","longitude":"5.467"}, {"stn":"64790","name":"KLEINE BROGEL","latitude":"51.167","longitude":"5.467"}, {"stn":"64810","name":"GENK","latitude":"50.933","longitude":"5.5"}, {"stn":"64900","name":"SPA\/LA SAUVENIERE","latitude":"50.483","longitude":"5.917"}, {"stn":"64901","name":"SEMMERZAKE (BAFB)","latitude":"50.933","longitude":"3.65"}, {"stn":"64960","name":"ELSENBORN","latitude":"50.467","longitude":"6.183"}, {"stn":"65900","name":"LUXEMBOURG\/LUXEMBOU","latitude":"49.617","longitude":"6.217"}, {"stn":"66000","name":"ST CHRISCHONA","latitude":"47.567","longitude":"7.683"}, {"stn":"66045","name":"LES EPLATURES","latitude":"47.083","longitude":"6.783"}, {"stn":"66100","name":"PAYERNE","latitude":"46.817","longitude":"6.95"}, {"stn":"66160","name":"FAHY","latitude":"47.433","longitude":"6.95"}, {"stn":"66200","name":"SCHAFFHAUSEN","latitude":"47.683","longitude":"8.617"}, {"stn":"66300","name":"BERN-BELP","latitude":"46.917","longitude":"7.5"}, {"stn":"66303","name":"BERN BELP","latitude":"46.917","longitude":"7.483"}, {"stn":"66304","name":"SAMEDAN","latitude":"46.533","longitude":"9.883"}, {"stn":"66330","name":"BUCHS-SUHR","latitude":"47.383","longitude":"8.083"}, {"stn":"66430","name":"WYNAU","latitude":"47.25","longitude":"7.783"}, {"stn":"66600","name":"ZUERICH METEOSCHWEI","latitude":"47.383","longitude":"8.567"}, {"stn":"66621","name":"GRENCHEN","latitude":"47.183","longitude":"7.417"}, {"stn":"66700","name":"ZURICH-KLOTEN","latitude":"47.483","longitude":"8.533"}, {"stn":"66720","name":"ALTDORF","latitude":"46.867","longitude":"8.633"}, {"stn":"66800","name":"SAENTIS","latitude":"47.25","longitude":"9.35"}, {"stn":"66811","name":"ST GALLEN ALTENRHEI","latitude":"47.483","longitude":"9.55"}, {"stn":"67000","name":"GENEVE-COINTRIN","latitude":"46.25","longitude":"6.133"}, {"stn":"67120","name":"AIGLE","latitude":"46.333","longitude":"6.917"}, {"stn":"67200","name":"SION","latitude":"46.217","longitude":"7.333"}, {"stn":"67340","name":"INTERLAKEN","latitude":"46.667","longitude":"7.867"}, {"stn":"67500","name":"GUETSCH","latitude":"46.65","longitude":"8.617"}, {"stn":"67530","name":"PIOTTA","latitude":"46.517","longitude":"8.683"}, {"stn":"67600","name":"LOCARNO-MONTI","latitude":"46.167","longitude":"8.783"}, {"stn":"67620","name":"LOCARNO-MAGADINO","latitude":"46.167","longitude":"8.883"}, {"stn":"67700","name":"LUGANO","latitude":"46","longitude":"8.967"}, {"stn":"67830","name":"SAN BERNARDINO","latitude":"46.467","longitude":"9.183"}, {"stn":"67860","name":"CHUR-EMS","latitude":"46.867","longitude":"9.533"}, {"stn":"67940","name":"ROBBIA","latitude":"46.35","longitude":"10.067"}, {"stn":"69900","name":"VADUZ (LIECHTENSTEI","latitude":"47.133","longitude":"9.517"}, {"stn":"70020","name":"BOULOGNE","latitude":"50.733","longitude":"1.6"}, {"stn":"70030","name":"LE TOUQUET","latitude":"50.517","longitude":"1.617"}, {"stn":"70050","name":"ABBEVILLE","latitude":"50.133","longitude":"1.833"}, {"stn":"70100","name":"DUNKERQUE","latitude":"51.05","longitude":"2.333"}, {"stn":"70150","name":"LILLE LESQUI","latitude":"50.567","longitude":"3.1"}, {"stn":"70170","name":"CAMBRAI","latitude":"50.217","longitude":"3.15"}, {"stn":"70200","name":"PTE DE LA HAGUE","latitude":"49.717","longitude":"-1.933"}, {"stn":"70240","name":"MAUPERTUS","latitude":"49.65","longitude":"-1.483"}, {"stn":"70270","name":"CAEN CARPIQUET","latitude":"49.183","longitude":"-0.45"}, {"stn":"70280","name":"CAP DE LA HEVE","latitude":"49.5","longitude":"0.067"}, {"stn":"70290","name":"PORT EN BESSIN","latitude":"49.35","longitude":"-0.767"}, {"stn":"70310","name":"DEAUVILLE","latitude":"49.367","longitude":"0.167"}, {"stn":"70370","name":"ROUEN","latitude":"49.383","longitude":"1.183"}, {"stn":"70380","name":"EVREUX\/FAUVILLE FAF","latitude":"49.017","longitude":"1.217"}, {"stn":"70400","name":"DIEPPE","latitude":"49.933","longitude":"1.1"}, {"stn":"70460","name":"LE HAVRE-OCTEVILLE","latitude":"49.533","longitude":"0.083"}, {"stn":"70550","name":"BEAUVAIS","latitude":"49.467","longitude":"2.117"}, {"stn":"70570","name":"CREIL (FAFB)","latitude":"49.25","longitude":"2.517"}, {"stn":"70610","name":"SAINT-QUENTIN","latitude":"49.817","longitude":"3.2"}, {"stn":"70700","name":"REIMS","latitude":"49.3","longitude":"4.033"}, {"stn":"70750","name":"CHARLEVILLE","latitude":"49.783","longitude":"4.633"}, {"stn":"70881","name":"ETAIN","latitude":"49.233","longitude":"5.683"}, {"stn":"70891","name":"CHAMBLEY FRANCE AB","latitude":"49.033","longitude":"5.866"}, {"stn":"70900","name":"METZ\/FRESCATY","latitude":"49.083","longitude":"6.133"}, {"stn":"70930","name":"METZ-NANCY-LORRAINE","latitude":"48.983","longitude":"6.25"}, {"stn":"71000","name":"OUESSANT","latitude":"48.483","longitude":"-5.05"}, {"stn":"71030","name":"POINTE DU RAZ","latitude":"48.033","longitude":"-4.733"}, {"stn":"71060","name":"LANDIVISIAU (NAVY)","latitude":"48.517","longitude":"-4.15"}, {"stn":"71070","name":"BRIGNOGAN","latitude":"48.683","longitude":"-4.333"}, {"stn":"71090","name":"LANVEOC POULMIC","latitude":"48.283","longitude":"-4.433"}, {"stn":"71100","name":"BREST","latitude":"48.45","longitude":"-4.417"}, {"stn":"71170","name":"PLOUMANACH PERROS G","latitude":"48.833","longitude":"-3.467"}, {"stn":"71180","name":"LANNION","latitude":"48.75","longitude":"-3.467"}, {"stn":"71190","name":"ROSTRENEN","latitude":"48.233","longitude":"-3.3"}, {"stn":"71200","name":"TREMUSON-ST-BRIEUC","latitude":"48.533","longitude":"-2.85"}, {"stn":"71210","name":"BREHAT ISLAND","latitude":"48.85","longitude":"-3"}, {"stn":"71250","name":"DINARD","latitude":"48.583","longitude":"-2.067"}, {"stn":"71270","name":"GROUIN DE CANCALE","latitude":"48.717","longitude":"-1.85"}, {"stn":"71300","name":"RENNES","latitude":"48.067","longitude":"-1.733"}, {"stn":"71330","name":"POINTE DU ROC","latitude":"48.833","longitude":"-1.617"}, {"stn":"71390","name":"ALENCON","latitude":"48.433","longitude":"0.1"}, {"stn":"71400","name":"CHATEAUDUN","latitude":"48.067","longitude":"1.383"}, {"stn":"71430","name":"CHARTRES","latitude":"48.467","longitude":"1.5"}, {"stn":"71450","name":"TRAPPES","latitude":"48.767","longitude":"2"}, {"stn":"71460","name":"TOUSSUS LE NOBLE","latitude":"48.767","longitude":"1.1"}, {"stn":"71470","name":"VILLACOUBLAY","latitude":"48.767","longitude":"2.2"}, {"stn":"71490","name":"PARIS-ORLY","latitude":"48.717","longitude":"2.383"}, {"stn":"71500","name":"LE BOURGET","latitude":"48.967","longitude":"2.433"}, {"stn":"71530","name":"MELUN","latitude":"48.617","longitude":"2.683"}, {"stn":"71560","name":"PARIS-MONTSOURIS","latitude":"48.817","longitude":"2.333"}, {"stn":"71570","name":"PARIS-AEROPORT CHAR","latitude":"49.017","longitude":"2.533"}, {"stn":"71650","name":"CHALONS\/VATRY FAFB","latitude":"48.783","longitude":"4.183"}, {"stn":"71680","name":"TROYES BARBEREY","latitude":"48.333","longitude":"4.017"}, {"stn":"71690","name":"SAINT-DIZIER","latitude":"48.633","longitude":"4.9"}, {"stn":"71790","name":"DATSAV3 VIRT STATION (FRANCE)","latitude":"49.933","longitude":"1.1"}, {"stn":"71800","name":"NANCY-ESSEY","latitude":"48.683","longitude":"6.217"}, {"stn":"71810","name":"NANCY-OCHEY","latitude":"48.583","longitude":"5.967"}, {"stn":"71860","name":"DATSAV3 VIRT STATION (FRANCE)","latitude":"49.933","longitude":"1.1"}, {"stn":"71900","name":"STRASBOURG-ENTZHEIM","latitude":"48.55","longitude":"7.633"}, {"stn":"71970","name":"MEYENHEIM-COLMAR","latitude":"47.917","longitude":"7.4"}, {"stn":"72000","name":"PTE DE PENMARCH","latitude":"47.8","longitude":"-4.367"}, {"stn":"72010","name":"QUIMPER","latitude":"47.967","longitude":"-4.167"}, {"stn":"72050","name":"LORIENT LAN BIHOUE","latitude":"47.767","longitude":"-3.45"}, {"stn":"72070","name":"BELLE IIE LE TALUT","latitude":"47.3","longitude":"-3.167"}, {"stn":"72170","name":"SAINT-NAZAIRE-MONTO","latitude":"47.317","longitude":"-2.167"}, {"stn":"72220","name":"NANTES","latitude":"47.15","longitude":"-1.6"}, {"stn":"72300","name":"BEAUCOUZE","latitude":"47.483","longitude":"-0.6"}, {"stn":"72350","name":"LE MANS","latitude":"47.933","longitude":"0.2"}, {"stn":"72400","name":"TOURS","latitude":"47.45","longitude":"0.733"}, {"stn":"72490","name":"ORLEANS","latitude":"47.983","longitude":"1.783"}, {"stn":"72550","name":"BOURGES","latitude":"47.067","longitude":"2.367"}, {"stn":"72553","name":"TAVAUX","latitude":"47.033","longitude":"5.417"}, {"stn":"72554","name":"AVORD","latitude":"47.05","longitude":"2.633"}, {"stn":"72570","name":"AVORD (FAFB)","latitude":"47.05","longitude":"2.65"}, {"stn":"72600","name":"NEVERS","latitude":"47","longitude":"3.1"}, {"stn":"72650","name":"AUXERRE","latitude":"47.8","longitude":"3.55"}, {"stn":"72700","name":"CHATEAU-CHINON","latitude":"47.067","longitude":"3.933"}, {"stn":"72800","name":"DIJON","latitude":"47.267","longitude":"5.083"}, {"stn":"72830","name":"LANGRES","latitude":"47.85","longitude":"5.333"}, {"stn":"72880","name":"BESANCON","latitude":"47.25","longitude":"5.983"}, {"stn":"72920","name":"LUXEUIL","latitude":"47.8","longitude":"6.383"}, {"stn":"72950","name":"BELFORT","latitude":"47.633","longitude":"6.883"}, {"stn":"72990","name":"BALE-MULHOUSE","latitude":"47.6","longitude":"7.517"}, {"stn":"73000","name":"L IIE D YEU","latitude":"46.7","longitude":"-2.333"}, {"stn":"73060","name":"LA ROCHE-SUR-YON","latitude":"46.7","longitude":"-1.383"}, {"stn":"73140","name":"CHASSIRON","latitude":"46.05","longitude":"-1.417"}, {"stn":"73150","name":"LA ROCHELLE","latitude":"46.15","longitude":"-1.15"}, {"stn":"73160","name":"LA ROCHELLE","latitude":"46.15","longitude":"-1.15"}, {"stn":"73175","name":"DATSAV3 VIRT STATION (FRANCE)","latitude":"49.933","longitude":"1.1"}, {"stn":"73300","name":"NIORT","latitude":"46.317","longitude":"-0.4"}, {"stn":"73350","name":"POITIERS","latitude":"46.583","longitude":"0.3"}, {"stn":"73540","name":"CHATEAUROUX\/DEOLS","latitude":"46.85","longitude":"1.717"}, {"stn":"73740","name":"VICHY","latitude":"46.167","longitude":"3.4"}, {"stn":"73790","name":"SAINT-YAN","latitude":"46.417","longitude":"4.017"}, {"stn":"73850","name":"MACON","latitude":"46.3","longitude":"4.8"}, {"stn":"73860","name":"DOLE-TAVAUX","latitude":"47.033","longitude":"5.417"}, {"stn":"73901","name":"MARCE","latitude":"47.55","longitude":"-0.3"}, {"stn":"74000","name":"LA COUBRE","latitude":"45.7","longitude":"-1.233"}, {"stn":"74120","name":"COGNAC","latitude":"45.667","longitude":"-0.317"}, {"stn":"74340","name":"LIMOGES","latitude":"45.867","longitude":"1.183"}, {"stn":"74380","name":"BRIVE","latitude":"45.15","longitude":"1.467"}, {"stn":"74600","name":"CLERMONT-FERRAND","latitude":"45.783","longitude":"3.167"}, {"stn":"74700","name":"LE PUY CITY","latitude":"45.05","longitude":"3.9"}, {"stn":"74710","name":"LE PUY","latitude":"45.083","longitude":"3.767"}, {"stn":"74750","name":"ST-ETIENNE BOUTHEON","latitude":"45.533","longitude":"4.3"}, {"stn":"74760","name":"AVIGNON-COUMANT","latitude":"43.9","longitude":"4.9"}, {"stn":"74800","name":"LYON-BRON","latitude":"45.717","longitude":"4.933"}, {"stn":"74810","name":"LYON-SATOLAS","latitude":"45.733","longitude":"5.083"}, {"stn":"74820","name":"AMBERIEU","latitude":"45.983","longitude":"5.333"}, {"stn":"74860","name":"GRENOBLE-ST-GEOIRS","latitude":"45.367","longitude":"5.333"}, {"stn":"74910","name":"CHAMBERY\/AIX-LES-BA","latitude":"45.633","longitude":"5.867"}, {"stn":"74940","name":"ANNECY\/MEYTHET","latitude":"45.933","longitude":"6.1"}, {"stn":"74970","name":"BOURG ST-MAURICE","latitude":"45.617","longitude":"6.767"}, {"stn":"75000","name":"CAP FERRET","latitude":"44.633","longitude":"-1.25"}, {"stn":"75020","name":"CAZAUX","latitude":"44.533","longitude":"-1.133"}, {"stn":"75030","name":"BISCAROSSE","latitude":"44.433","longitude":"-1.25"}, {"stn":"75100","name":"BORDEAUX MERIGNAC","latitude":"44.833","longitude":"-0.683"}, {"stn":"75240","name":"AGEN","latitude":"44.183","longitude":"0.6"}, {"stn":"75300","name":"BERGERAC","latitude":"44.817","longitude":"0.517"}, {"stn":"75350","name":"GOURDON","latitude":"44.75","longitude":"1.4"}, {"stn":"75400","name":"MONTAUBAN","latitude":"44.033","longitude":"1.383"}, {"stn":"75490","name":"AURILLAC","latitude":"44.883","longitude":"2.417"}, {"stn":"75520","name":"RODEZ\/MARCILLAC","latitude":"44.4","longitude":"2.483"}, {"stn":"75580","name":"MILLAU","latitude":"44.117","longitude":"3.017"}, {"stn":"75630","name":"AVIGNON","latitude":"43.9","longitude":"4.9"}, {"stn":"75770","name":"MONTELIMAR","latitude":"44.583","longitude":"4.733"}, {"stn":"75790","name":"ORANGE","latitude":"44.133","longitude":"4.833"}, {"stn":"75880","name":"ST-AUBAN-SUR-DURANC","latitude":"44.067","longitude":"6"}, {"stn":"75910","name":"EMBRUN","latitude":"44.567","longitude":"6.5"}, {"stn":"76000","name":"SOCOA","latitude":"43.4","longitude":"-1.683"}, {"stn":"76020","name":"BIARRITZ","latitude":"43.467","longitude":"-1.533"}, {"stn":"76030","name":"DAX","latitude":"43.683","longitude":"-1.067"}, {"stn":"76070","name":"MONT-DE-MARSAN","latitude":"43.917","longitude":"-0.5"}, {"stn":"76100","name":"PAU","latitude":"43.383","longitude":"-0.417"}, {"stn":"76210","name":"TARBES-OSSUN","latitude":"43.183","longitude":"0"}, {"stn":"76220","name":"AUCH","latitude":"43.683","longitude":"0.6"}, {"stn":"76270","name":"SAINT GIRONS","latitude":"43","longitude":"1.1"}, {"stn":"76300","name":"TOULOUSE BLAGNAC","latitude":"43.633","longitude":"1.367"}, {"stn":"76310","name":"TOULOUSE FRANCAZAL","latitude":"43.533","longitude":"1.367"}, {"stn":"76320","name":"ALBI","latitude":"43.917","longitude":"2.117"}, {"stn":"76350","name":"CARCASSONNE","latitude":"43.217","longitude":"2.317"}, {"stn":"76380","name":"BEZIERS VIAS","latitude":"43.317","longitude":"3.35"}, {"stn":"76410","name":"SETE","latitude":"43.4","longitude":"3.683"}, {"stn":"76415","name":"VIAS","latitude":"43.317","longitude":"3.35"}, {"stn":"76430","name":"MONTPELLIER","latitude":"43.583","longitude":"3.967"}, {"stn":"76450","name":"NIMES-COURBESSAC","latitude":"43.867","longitude":"4.4"}, {"stn":"76460","name":"NIMES\/GARONS (NAVY)","latitude":"43.75","longitude":"4.417"}, {"stn":"76470","name":"ISTRES","latitude":"43.517","longitude":"4.917"}, {"stn":"76500","name":"MARIGNANE","latitude":"43.45","longitude":"5.233"}, {"stn":"76520","name":"CAP POMEGUES","latitude":"43.267","longitude":"5.3"}, {"stn":"76530","name":"CAP COURONNE","latitude":"43.333","longitude":"5.05"}, {"stn":"76600","name":"TOULON","latitude":"43.1","longitude":"5.933"}, {"stn":"76610","name":"CAP CEPET","latitude":"43.083","longitude":"5.933"}, {"stn":"76670","name":"HYERES","latitude":"43.1","longitude":"6.15"}, {"stn":"76700","name":"PORQUEROLLES","latitude":"43","longitude":"6.233"}, {"stn":"76840","name":"CANNES","latitude":"43.533","longitude":"6.95"}, {"stn":"76900","name":"NICE","latitude":"43.65","longitude":"7.2"}, {"stn":"76950","name":"CAPE FERRAT","latitude":"43.683","longitude":"7.333"}, {"stn":"77470","name":"PERPIGNAN","latitude":"42.733","longitude":"2.867"}, {"stn":"77490","name":"CAP BEAR","latitude":"42.517","longitude":"3.133"}, {"stn":"77530","name":"ILE ROUSSE","latitude":"42.633","longitude":"8.917"}, {"stn":"77540","name":"CALVI","latitude":"42.533","longitude":"8.8"}, {"stn":"77560","name":"CAPE CAVALLO","latitude":"42.517","longitude":"8.683"}, {"stn":"77610","name":"AJACCIO","latitude":"41.917","longitude":"8.8"}, {"stn":"77650","name":"SOLENZARA","latitude":"41.917","longitude":"9.4"}, {"stn":"77680","name":"LA CHIAPPA","latitude":"41.6","longitude":"9.367"}, {"stn":"77700","name":"CAP PERTUSATO","latitude":"41.367","longitude":"9.167"}, {"stn":"77800","name":"FIGARI","latitude":"41.5","longitude":"9.1"}, {"stn":"77850","name":"CAP CORSE","latitude":"43","longitude":"9.35"}, {"stn":"77900","name":"BASTIA","latitude":"42.55","longitude":"9.483"}, {"stn":"77910","name":"CAPE SAGRO","latitude":"42.8","longitude":"9.483"}, {"stn":"80001","name":"MADEIRA","latitude":"32.7","longitude":"-16.767"}, {"stn":"80010","name":"LA CORUNA","latitude":"43.367","longitude":"-8.417"}, {"stn":"80020","name":"LA CORUNA\/ALVEDRO","latitude":"43.3","longitude":"-8.383"}, {"stn":"80110","name":"ASTURIAS\/AVILES","latitude":"43.55","longitude":"-6.033"}, {"stn":"80144","name":"ARMILLA","latitude":"37.133","longitude":"-3.633"}, {"stn":"80150","name":"OVIEDO","latitude":"43.35","longitude":"-5.867"}, {"stn":"80210","name":"SANTANDER\/PARAYAS","latitude":"43.433","longitude":"-3.817"}, {"stn":"80230","name":"SANTANDER","latitude":"43.483","longitude":"-3.8"}, {"stn":"80250","name":"BILBAO\/SONDICA","latitude":"43.3","longitude":"-2.9"}, {"stn":"80270","name":"SAN SEBASTIAN\/IGUEL","latitude":"43.3","longitude":"-2.033"}, {"stn":"80290","name":"SAN SEBASTIAN\/FUENT","latitude":"43.35","longitude":"-1.8"}, {"stn":"80420","name":"SANTIAGO\/LABACOLLA","latitude":"42.9","longitude":"-8.433"}, {"stn":"80450","name":"VIGO\/PEINADOR","latitude":"42.233","longitude":"-8.633"}, {"stn":"80550","name":"LEON\/VIRGEN DEL CAM","latitude":"42.583","longitude":"-5.65"}, {"stn":"80750","name":"BURGOS\/VILLAFRIA","latitude":"42.35","longitude":"-3.633"}, {"stn":"80800","name":"VITORIA","latitude":"42.883","longitude":"-2.717"}, {"stn":"80840","name":"LOGRONO\/AGONCILLO","latitude":"42.45","longitude":"-2.333"}, {"stn":"80850","name":"PAMPLONA\/NOAIN","latitude":"42.767","longitude":"-1.633"}, {"stn":"81400","name":"VALLADOLID\/VILLANUB","latitude":"41.717","longitude":"-4.85"}, {"stn":"81410","name":"VALLADOLID","latitude":"41.65","longitude":"-4.767"}, {"stn":"81600","name":"ZARAGOZA\/AEROPUERTO","latitude":"41.667","longitude":"-1"}, {"stn":"81605","name":"ZARAGOZA (USAFB)","latitude":"41.667","longitude":"-1.05"}, {"stn":"81606","name":"ZARAGOZA (MIL\/CIV)","latitude":"41.667","longitude":"-1.033"}, {"stn":"81750","name":"REUS\/AEROPUERTO","latitude":"41.15","longitude":"1.167"}, {"stn":"81763","name":"SABADELL","latitude":"41.517","longitude":"2.1"}, {"stn":"81810","name":"BARCELONA\/AEROPUERT","latitude":"41.283","longitude":"2.067"}, {"stn":"81840","name":"GERONA\/COSTA BRAVA","latitude":"41.9","longitude":"2.767"}, {"stn":"82020","name":"SALAMANCA\/MATACAN","latitude":"40.95","longitude":"-5.5"}, {"stn":"82150","name":"NAVACERRADA","latitude":"40.783","longitude":"-4.017"}, {"stn":"82210","name":"MADRID\/BARAJAS RS","latitude":"40.45","longitude":"-3.55"}, {"stn":"82230","name":"MADRID\/CUATRO VIENT","latitude":"40.383","longitude":"-3.783"}, {"stn":"82240","name":"MADRID\/GETAFE","latitude":"40.3","longitude":"-3.717"}, {"stn":"82270","name":"MADRID\/TORREJON","latitude":"40.483","longitude":"-3.45"}, {"stn":"82380","name":"TORTOSA","latitude":"40.817","longitude":"0.5"}, {"stn":"82610","name":"CACERES","latitude":"39.467","longitude":"-6.333"}, {"stn":"82800","name":"ALBACETE\/LOS LLANOS","latitude":"38.95","longitude":"-1.85"}, {"stn":"82840","name":"VALENCIA\/AEROPUERTO","latitude":"39.5","longitude":"-0.467"}, {"stn":"83060","name":"PALMA DE MALLORCA\/S","latitude":"39.55","longitude":"2.733"}, {"stn":"83140","name":"MENORCA\/MAHON","latitude":"39.867","longitude":"4.233"}, {"stn":"83300","name":"BADAJOZ\/TALAVERA LA","latitude":"38.883","longitude":"-6.833"}, {"stn":"83480","name":"CIUDAD REAL","latitude":"38.983","longitude":"-3.917"}, {"stn":"83600","name":"ALICANTE\/EL ALTET","latitude":"38.283","longitude":"-0.55"}, {"stn":"83730","name":"IBIZA\/ES CODOLA","latitude":"38.883","longitude":"1.383"}, {"stn":"83900","name":"SEVILLA\/TABLADA","latitude":"37.367","longitude":"-6"}, {"stn":"83910","name":"SEVILLA\/SAN PABLO","latitude":"37.417","longitude":"-5.9"}, {"stn":"83970","name":"MORON DE LA FRONTER","latitude":"37.15","longitude":"-5.617"}, {"stn":"84100","name":"CORDOBA\/AEROPUERTO","latitude":"37.85","longitude":"-4.85"}, {"stn":"84190","name":"GRANADA\/AEROPUERTO","latitude":"37.183","longitude":"-3.783"}, {"stn":"84290","name":"MURCIA\/ALCANTARILLA","latitude":"37.95","longitude":"-1.233"}, {"stn":"84300","name":"MURCIA","latitude":"38","longitude":"-1.167"}, {"stn":"84330","name":"MURCIA\/SAN JAVIER","latitude":"37.783","longitude":"-0.8"}, {"stn":"84490","name":"ROTA NAS","latitude":"36.65","longitude":"-6.35"}, {"stn":"84510","name":"JEREZ DE LA FRONTER","latitude":"36.75","longitude":"-6.067"}, {"stn":"84820","name":"MALAGA\/AEROPUERTO","latitude":"36.667","longitude":"-4.483"}, {"stn":"84870","name":"ALMERIA\/AEROPUERTO","latitude":"36.85","longitude":"-2.383"}, {"stn":"84950","name":"GIBRALTAR","latitude":"36.15","longitude":"-5.35"}, {"stn":"85010","name":"FLORES (ACORES)","latitude":"39.45","longitude":"-31.133"}, {"stn":"85050","name":"HORTA\/CASTELO BRANC","latitude":"38.517","longitude":"-28.717"}, {"stn":"85090","name":"LAJES (ACORES)","latitude":"38.767","longitude":"-27.1"}, {"stn":"85120","name":"PONTA DELGADA\/NORDE","latitude":"37.733","longitude":"-25.7"}, {"stn":"85150","name":"SANTA MARIA (ACORES","latitude":"36.967","longitude":"-25.167"}, {"stn":"85210","name":"FUNCHAL\/S.CATARINA","latitude":"32.683","longitude":"-16.767"}, {"stn":"85220","name":"FUNCHAL","latitude":"32.633","longitude":"-16.9"}, {"stn":"85240","name":"PORTO SANTO","latitude":"33.067","longitude":"-16.35"}, {"stn":"85320","name":"SINTRA\/GRANJA","latitude":"38.833","longitude":"-9.333"}, {"stn":"85340","name":"MONTIJO","latitude":"38.7","longitude":"-9.033"}, {"stn":"85360","name":"LISBOA\/PORTELA","latitude":"38.767","longitude":"-9.133"}, {"stn":"85380","name":"SAGRES","latitude":"37","longitude":"-8.95"}, {"stn":"85400","name":"MONTE REAL","latitude":"39.833","longitude":"-8.883"}, {"stn":"85430","name":"VIANA DO CASTELO","latitude":"41.7","longitude":"-8.8"}, {"stn":"85440","name":"OVAR\/MACEDA","latitude":"40.917","longitude":"-8.633"}, {"stn":"85450","name":"PORTO\/PEDRAS RUBRAS","latitude":"41.233","longitude":"-8.683"}, {"stn":"85480","name":"COIMBRA\/CERNACHE","latitude":"40.15","longitude":"-8.467"}, {"stn":"85490","name":"COIMBRA","latitude":"40.2","longitude":"-8.417"}, {"stn":"85540","name":"FARO\/AEROPORTO","latitude":"37.017","longitude":"-7.967"}, {"stn":"85570","name":"EVORA","latitude":"38.567","longitude":"-7.9"}, {"stn":"85580","name":"EVORA\/C. COORD","latitude":"38.533","longitude":"-7.9"}, {"stn":"85581","name":"OVAR","latitude":"40.917","longitude":"-8.633"}, {"stn":"85600","name":"VISEU","latitude":"40.717","longitude":"-7.883"}, {"stn":"85610","name":"BEJA\/B. AEREA","latitude":"38.067","longitude":"-7.917"}, {"stn":"85620","name":"BEJA","latitude":"38.017","longitude":"-7.867"}, {"stn":"85660","name":"VILA REAL","latitude":"41.317","longitude":"-7.733"}, {"stn":"85670","name":"VILA REAL","latitude":"41.267","longitude":"-7.717"}, {"stn":"85700","name":"CASTELO BRANCO","latitude":"39.833","longitude":"-7.483"}, {"stn":"85710","name":"PORTALEGRE","latitude":"39.283","longitude":"-7.417"}, {"stn":"85750","name":"BRAGANCA","latitude":"41.8","longitude":"-6.733"}, {"stn":"85790","name":"LISBOA\/GAGO COUTINH","latitude":"38.767","longitude":"-9.133"}, {"stn":"85940","name":"SAL","latitude":"16.733","longitude":"-22.95"}, {"stn":"90910","name":"ARKONA (CAPE)","latitude":"54.683","longitude":"13.433"}, {"stn":"91610","name":"BOLTENHAGEN","latitude":"54","longitude":"11.2"}, {"stn":"91620","name":"SCHWERIN","latitude":"53.633","longitude":"11.417"}, {"stn":"91700","name":"WARNEMUENDE","latitude":"54.183","longitude":"12.083"}, {"stn":"91770","name":"TETEROW","latitude":"53.767","longitude":"12.617"}, {"stn":"91840","name":"GREIFSWALD","latitude":"54.1","longitude":"13.383"}, {"stn":"91850","name":"GRIEFSWALD\/WIECK","latitude":"54.1","longitude":"13.45"}, {"stn":"92490","name":"BOIZENBURG (AUT)","latitude":"53.383","longitude":"10.717"}, {"stn":"92610","name":"SEEHAUSEN\/ALTMARK","latitude":"52.9","longitude":"11.733"}, {"stn":"92700","name":"NEURUPPIN","latitude":"52.9","longitude":"12.817"}, {"stn":"92800","name":"NEUBRANDENBURG","latitude":"53.6","longitude":"13.317"}, {"stn":"92910","name":"ANGERMUENDE","latitude":"53.017","longitude":"14"}, {"stn":"93590","name":"GARDELEGEN (AUT)","latitude":"52.517","longitude":"11.4"}, {"stn":"93610","name":"MAGDEBURG","latitude":"52.1","longitude":"11.583"}, {"stn":"93790","name":"POTSDAM","latitude":"52.383","longitude":"13.067"}, {"stn":"93850","name":"BERLIN\/SCHONEFELD","latitude":"52.383","longitude":"13.517"}, {"stn":"93930","name":"LINDENBERG","latitude":"52.217","longitude":"14.117"}, {"stn":"93980","name":"FRANKFURT\/ODER","latitude":"52.367","longitude":"14.533"}, {"stn":"94490","name":"LEINEFELDE (AUT)","latitude":"51.383","longitude":"10.317"}, {"stn":"94530","name":"BROCKEN (PEAK)","latitude":"51.8","longitude":"10.617"}, {"stn":"94540","name":"WERNIGERODE (AUT)","latitude":"51.85","longitude":"10.767"}, {"stn":"94600","name":"ARTERN","latitude":"51.367","longitude":"11.3"}, {"stn":"94690","name":"LEIPZIG\/SCHKEUDITZ","latitude":"51.417","longitude":"12.233"}, {"stn":"94740","name":"WITTENBERG","latitude":"51.883","longitude":"12.65"}, {"stn":"94790","name":"BOGUS GERMAN","latitude":"51.3","longitude":"13.017"}, {"stn":"94800","name":"OSCHATZ","latitude":"51.3","longitude":"13.117"}, {"stn":"94880","name":"DRESDEN\/KLOTZSCHE","latitude":"51.133","longitude":"13.767"}, {"stn":"94900","name":"DOBERLUG\/KIRCHHAIN","latitude":"51.65","longitude":"13.583"}, {"stn":"94920","name":"COTTBUS","latitude":"51.767","longitude":"14.3"}, {"stn":"94960","name":"COTTBUS","latitude":"51.783","longitude":"14.333"}, {"stn":"94990","name":"GOERLITZ","latitude":"51.167","longitude":"14.95"}, {"stn":"95460","name":"BOGUS GERMAN","latitude":"50.633","longitude":"10.15"}, {"stn":"95480","name":"MEININGEN","latitude":"50.55","longitude":"10.367"}, {"stn":"95490","name":"GROSSER INSELSBERG","latitude":"50.85","longitude":"10.467"}, {"stn":"95520","name":"SCHMUECKE (RIDGE)","latitude":"50.65","longitude":"10.767"}, {"stn":"95540","name":"ERFURT\/BINDERSLEBN","latitude":"50.983","longitude":"10.967"}, {"stn":"95580","name":"SONNEBERG\/NEUFANG","latitude":"50.383","longitude":"11.183"}, {"stn":"95670","name":"GERA\/LEUMNITZ","latitude":"50.883","longitude":"12.133"}, {"stn":"95690","name":"PLAUEN (AUT)","latitude":"50.5","longitude":"12.15"}, {"stn":"95770","name":"KARL-MARX-STADT","latitude":"50.817","longitude":"12.9"}, {"stn":"95780","name":"FICHTELBERG MTN","latitude":"50.433","longitude":"12.95"}, {"stn":"95820","name":"ZINNWALD\/GEORGENFE","latitude":"50.733","longitude":"13.75"}, {"stn":"100020","name":"BORKUMRIFF(LGT-VSL)","latitude":"53.8","longitude":"6.367"}, {"stn":"100040","name":"UFS TW\/EMS (AUT)","latitude":"54.167","longitude":"6.35"}, {"stn":"100050","name":"ELBE 1 (LGT-VSL)","latitude":"54","longitude":"8.117"}, {"stn":"100060","name":"FEHMARNBELT","latitude":"54.6","longitude":"11.15"}, {"stn":"100150","name":"HELGOLAND\/DUNE","latitude":"54.183","longitude":"7.9"}, {"stn":"100200","name":"LIST\/SYLT","latitude":"55.017","longitude":"8.417"}, {"stn":"100220","name":"LECK","latitude":"54.8","longitude":"8.95"}, {"stn":"100260","name":"HUSUM (GER-AFB)","latitude":"54.517","longitude":"9.15"}, {"stn":"100280","name":"ST PETER-ORDING","latitude":"54.333","longitude":"8.6"}, {"stn":"100290","name":"DATSAV3 VIRT STATION (GERMANY)","latitude":"52.183","longitude":"9.95"}, {"stn":"100330","name":"GLUECKSBURG\/MEIERWI","latitude":"54.833","longitude":"9.5"}, {"stn":"100340","name":"EGGEBEK","latitude":"54.633","longitude":"9.35"}, {"stn":"100350","name":"SCHLESWIG","latitude":"54.533","longitude":"9.55"}, {"stn":"100370","name":"SCHLESWIG-JAGEL","latitude":"54.467","longitude":"9.517"}, {"stn":"100380","name":"HOHN","latitude":"54.317","longitude":"9.533"}, {"stn":"100450","name":"KIEL\/KRONSHAGEN","latitude":"54.333","longitude":"10.1"}, {"stn":"100460","name":"KIEL\/HOLTENAU(GNVY)","latitude":"54.383","longitude":"10.15"}, {"stn":"100465","name":"KIEL HOLTENAU","latitude":"54.367","longitude":"10.133"}, {"stn":"100550","name":"WESTERMARKELSDORF","latitude":"54.533","longitude":"11.067"}, {"stn":"100910","name":"ARKONA (CAPE)","latitude":"54.683","longitude":"13.433"}, {"stn":"101130","name":"NORDERNEY ISLAND","latitude":"53.717","longitude":"7.15"}, {"stn":"101220","name":"JEVER","latitude":"53.533","longitude":"7.9"}, {"stn":"101260","name":"WITTMUNDHAVEN","latitude":"53.55","longitude":"7.667"}, {"stn":"101270","name":"WILHELMSHAVEN","latitude":"53.533","longitude":"8.167"}, {"stn":"101280","name":"SENGWARDEN","latitude":"53.583","longitude":"8.033"}, {"stn":"101290","name":"BREMERHAVEN","latitude":"53.533","longitude":"8.583"}, {"stn":"101310","name":"CUXHAVEN","latitude":"53.867","longitude":"8.7"}, {"stn":"101360","name":"NORDHOLZ","latitude":"53.767","longitude":"8.667"}, {"stn":"101420","name":"ITZEHOE","latitude":"53.983","longitude":"9.567"}, {"stn":"101470","name":"HAMBURG\/FUHLSBUTTEL","latitude":"53.633","longitude":"10"}, {"stn":"101500","name":"DOERNICK","latitude":"54.167","longitude":"10.35"}, {"stn":"101560","name":"LUEBECK\/BLANKENSEE","latitude":"53.817","longitude":"10.7"}, {"stn":"101610","name":"BOLTENHAGEN","latitude":"54","longitude":"11.2"}, {"stn":"101620","name":"SCHWERIN","latitude":"53.633","longitude":"11.417"}, {"stn":"101624","name":"SCHWERIN PARCHIM","latitude":"53.417","longitude":"11.783"}, {"stn":"101630","name":"PARCHIM","latitude":"53.417","longitude":"11.783"}, {"stn":"101700","name":"WARNEMUENDE","latitude":"54.183","longitude":"12.083"}, {"stn":"101720","name":"LAAGE","latitude":"53.917","longitude":"12.283"}, {"stn":"101730","name":"DATSAV3 VIRT STATION (GERMANY)","latitude":"52.183","longitude":"9.95"}, {"stn":"101770","name":"TETEROW","latitude":"53.767","longitude":"12.617"}, {"stn":"101840","name":"GREIFSWALD","latitude":"54.1","longitude":"13.4"}, {"stn":"101850","name":"NAME AND LOC UNKN","latitude":"52.183","longitude":"9.95"}, {"stn":"101930","name":"UECKERMUENDE (AUT)","latitude":"53.75","longitude":"14.067"}, {"stn":"102000","name":"EMDEN-FLUGPLATZ","latitude":"53.383","longitude":"7.233"}, {"stn":"102020","name":"EMDEN\/WOLTHUSEN","latitude":"53.367","longitude":"7.217"}, {"stn":"102030","name":"EMDEN\/HAFEN","latitude":"53.333","longitude":"7.2"}, {"stn":"102150","name":"OLDENBURG","latitude":"53.183","longitude":"8.167"}, {"stn":"102180","name":"AHLHORN(GAFB)","latitude":"52.883","longitude":"8.233"}, {"stn":"102240","name":"BREMEN","latitude":"53.05","longitude":"8.8"}, {"stn":"102350","name":"SOLTAU","latitude":"53","longitude":"9.833"}, {"stn":"102380","name":"BERGEN","latitude":"52.817","longitude":"9.933"}, {"stn":"102420","name":"DATSAV3 VIRT STATION (GERMANY)","latitude":"52.183","longitude":"9.95"}, {"stn":"102460","name":"FASSBERG","latitude":"52.917","longitude":"10.183"}, {"stn":"102490","name":"BOIZENBURG (AUT)","latitude":"53.4","longitude":"10.683"}, {"stn":"102530","name":"LUCHOW\/REHBECK","latitude":"52.967","longitude":"11.133"}, {"stn":"102540","name":"DATSAV3 VIRT STATION (GERMANY)","latitude":"52.183","longitude":"9.95"}, {"stn":"102610","name":"SEEHAUSEN\/ALTMARK","latitude":"52.9","longitude":"11.733"}, {"stn":"102620","name":"DATSAV3 VIRT STATION (GERMANY)","latitude":"52.183","longitude":"9.95"}, {"stn":"102700","name":"NEURUPPIN","latitude":"52.9","longitude":"12.817"}, {"stn":"102720","name":"WITTSTOCK","latitude":"53.2","longitude":"12.517"}, {"stn":"102740","name":"DATSAV3 VIRT STATION (GERMANY)","latitude":"52.183","longitude":"9.95"}, {"stn":"102790","name":"DATSAV3 VIRT STATION (GERMANY)","latitude":"52.183","longitude":"9.95"}, {"stn":"102800","name":"NEUBRANDENBURG","latitude":"53.55","longitude":"13.2"}, {"stn":"102810","name":"TROLLENHAGEN","latitude":"53.6","longitude":"13.317"}, {"stn":"102910","name":"ANGERMUENDE","latitude":"53.033","longitude":"14"}, {"stn":"103050","name":"LINGEN","latitude":"52.517","longitude":"7.317"}, {"stn":"103060","name":"RHEINE-BENTLAGE","latitude":"52.3","longitude":"7.383"}, {"stn":"103130","name":"MUNSTER\/TELGTE","latitude":"51.967","longitude":"7.6"}, {"stn":"103134","name":"MUNSTER\/OSNABRUCK","latitude":"52.133","longitude":"7.683"}, {"stn":"103140","name":"HOPSTEN","latitude":"52.333","longitude":"7.533"}, {"stn":"103150","name":"MUNSTER\/OSNABRUCK","latitude":"52.133","longitude":"7.7"}, {"stn":"103170","name":"OSNABRUCK\/ATTERHEID","latitude":"52.25","longitude":"8.05"}, {"stn":"103200","name":"GUETERSLOH","latitude":"51.933","longitude":"8.317"}, {"stn":"103210","name":"DIEPHOLZ","latitude":"52.583","longitude":"8.35"}, {"stn":"103250","name":"BAD SALZUFLEN","latitude":"52.1","longitude":"8.75"}, {"stn":"103340","name":"WUNSTORF","latitude":"52.467","longitude":"9.433"}, {"stn":"103350","name":"BUECKEBURG","latitude":"52.283","longitude":"9.083"}, {"stn":"103380","name":"HANNOVER","latitude":"52.467","longitude":"9.7"}, {"stn":"103430","name":"CELLE","latitude":"52.6","longitude":"10.017"}, {"stn":"103480","name":"BRAUNSCHWEIG","latitude":"52.3","longitude":"10.45"}, {"stn":"103490","name":"DATSAV3 VIRT STATION (GERMANY)","latitude":"52.183","longitude":"9.95"}, {"stn":"103590","name":"GARDELEGEN (AUT)","latitude":"52.517","longitude":"11.4"}, {"stn":"103610","name":"MAGDEBURG","latitude":"52.117","longitude":"11.583"}, {"stn":"103630","name":"DATSAV3 VIRT STATION (GERMANY)","latitude":"52.183","longitude":"9.95"}, {"stn":"103660","name":"DATSAV3 VIRT STATION (GERMANY)","latitude":"52.183","longitude":"9.95"}, {"stn":"103680","name":"WIESENBURG","latitude":"52.117","longitude":"12.467"}, {"stn":"103790","name":"POTSDAM","latitude":"52.383","longitude":"13.067"}, {"stn":"103800","name":"DATSAV3 VIRT STATION (GERMANY)","latitude":"52.183","longitude":"9.95"}, {"stn":"103810","name":"BERLIN\/DAHLEM","latitude":"52.467","longitude":"13.3"}, {"stn":"103820","name":"BERLIN\/TEGEL (FAFB)","latitude":"52.567","longitude":"13.317"}, {"stn":"103840","name":"BERLIN\/TEMPELHOF","latitude":"52.467","longitude":"13.4"}, {"stn":"103850","name":"BERLIN\/SCHONEFELD","latitude":"52.383","longitude":"13.517"}, {"stn":"103870","name":"DATSAV3 VIRT STATION (GERMANY)","latitude":"52.183","longitude":"9.95"}, {"stn":"103930","name":"LINDENBERG","latitude":"52.217","longitude":"14.117"}, {"stn":"103980","name":"DATSAV3 VIRT STATION (GERMANY)","latitude":"52.183","longitude":"9.95"}, {"stn":"104000","name":"DUSSELDORF","latitude":"51.283","longitude":"6.783"}, {"stn":"104010","name":"BRUGGEN (RAF)","latitude":"51.2","longitude":"6.133"}, {"stn":"104020","name":"WILDENRATH(GAFB)","latitude":"51.117","longitude":"6.217"}, {"stn":"104040","name":"KALKAR","latitude":"51.733","longitude":"6.267"}, {"stn":"104060","name":"BOCHOLT","latitude":"51.833","longitude":"6.533"}, {"stn":"104100","name":"ESSEN\/MULHEIM","latitude":"51.4","longitude":"6.967"}, {"stn":"104160","name":"DORTMUND\/WICKEDE","latitude":"51.517","longitude":"7.617"}, {"stn":"104180","name":"LUEDENSCHEID","latitude":"51.25","longitude":"7.65"}, {"stn":"104240","name":"WERL(BAB)","latitude":"51.567","longitude":"7.917"}, {"stn":"104260","name":"PADERBORN\/LIPPSTADT","latitude":"51.617","longitude":"8.617"}, {"stn":"104270","name":"KAHLER ASTEN(MOUNT)","latitude":"51.183","longitude":"8.483"}, {"stn":"104300","name":"BAD LIPPSPRINGE","latitude":"51.783","longitude":"8.833"}, {"stn":"104374","name":"MONCHENGLADBACH","latitude":"51.217","longitude":"6.5"}, {"stn":"104380","name":"KASSEL","latitude":"51.3","longitude":"9.45"}, {"stn":"104390","name":"FRITZLAR","latitude":"51.117","longitude":"9.283"}, {"stn":"104440","name":"GOETTINGEN","latitude":"51.55","longitude":"9.95"}, {"stn":"104480","name":"DATSAV3 VIRT STATION (GERMANY)","latitude":"52.183","longitude":"9.95"}, {"stn":"104490","name":"LEINEFELDE (AUT)","latitude":"51.4","longitude":"10.317"}, {"stn":"104520","name":"BRAUNLAGE","latitude":"51.733","longitude":"10.6"},